<?xml version="1.0" encoding="UTF-8"?>
<gpx
 version="1.0"
creator="GPSBabel - http://www.gpsbabel.org"
xmlns:xsi="http://www.w3.org/2001/XMLSchema-instance"
xmlns="http://www.topografix.com/GPX/1/0"
xsi:schemaLocation="http://www.topografix.com/GPX/1/0 http://www.topografix.com/GPX/1/0/gpx.xsd">
<time>2011-12-15T22:24:31Z</time>
<bounds minlat="36.496093600" minlon="-83.021226900" maxlat="39.463531500" maxlon="-75.717091200"/>
<wpt lat="36.761001800" lon="-83.021226900">
  <name>Fast Food Restaurant:Subway</name>
  <cmt>Fast Food Restaurant:Subway</cmt>
  <desc>Fast Food Restaurant:Subway</desc>
</wpt>
<wpt lat="36.762359900" lon="-83.018083400">
  <name>Fast Food Restaurant:Hardee&apos;s</name>
  <cmt>Fast Food Restaurant:Hardee&apos;s</cmt>
  <desc>Fast Food Restaurant:Hardee&apos;s</desc>
</wpt>
<wpt lat="36.762323600" lon="-83.017525000">
  <name>Fast Food Restaurant:McDonalds</name>
  <cmt>Fast Food Restaurant:McDonalds</cmt>
  <desc>Fast Food Restaurant:McDonalds</desc>
</wpt>
<wpt lat="36.762151700" lon="-83.015368500">
  <name>Restaurant:Pizza Hut</name>
  <cmt>Restaurant:Pizza Hut</cmt>
  <desc>Restaurant:Pizza Hut</desc>
</wpt>
<wpt lat="36.763557600" lon="-83.015135700">
  <name>Restaurant:El Centerino</name>
  <cmt>Restaurant:El Centerino</cmt>
  <desc>Restaurant:El Centerino</desc>
</wpt>
<wpt lat="36.762552000" lon="-83.014931800">
  <name>Restaurant:Hong Kong Buffet</name>
  <cmt>Restaurant:Hong Kong Buffet</cmt>
  <desc>Restaurant:Hong Kong Buffet</desc>
</wpt>
<wpt lat="36.761988400" lon="-83.014928600">
  <name>Fast Food Restaurant:Long John Silvers</name>
  <cmt>Fast Food Restaurant:Long John Silvers</cmt>
  <desc>Fast Food Restaurant:Long John Silvers</desc>
</wpt>
<wpt lat="36.505916600" lon="-82.556572700">
  <name>Restaurant:La Careeta</name>
  <cmt>Restaurant:La Careeta</cmt>
  <desc>Restaurant:La Careeta</desc>
</wpt>
<wpt lat="36.506013100" lon="-82.555690800">
  <name>Fast Food Restaurant:Burger King</name>
  <cmt>Fast Food Restaurant:Burger King</cmt>
  <desc>Fast Food Restaurant:Burger King</desc>
</wpt>
<wpt lat="36.546632500" lon="-82.522269000">
  <name>Restaurant:Saltwater Willy&apos;s Bayou Cafe</name>
  <cmt>Restaurant:Saltwater Willy&apos;s Bayou Cafe</cmt>
  <desc>Restaurant:Saltwater Willy&apos;s Bayou Cafe</desc>
</wpt>
<wpt lat="36.544391400" lon="-82.519543900">
  <name>Restaurant:Golden Corral</name>
  <cmt>Restaurant:Golden Corral</cmt>
  <desc>Restaurant:Golden Corral</desc>
</wpt>
<wpt lat="36.541493400" lon="-82.519407700">
  <name>Restaurant:Fuji House</name>
  <cmt>Restaurant:Fuji House</cmt>
  <desc>Restaurant:Fuji House</desc>
</wpt>
<wpt lat="36.544874100" lon="-82.519189800">
  <name>Restaurant:O&apos;Charley&apos;s</name>
  <cmt>Restaurant:O&apos;Charley&apos;s</cmt>
  <desc>Restaurant:O&apos;Charley&apos;s</desc>
</wpt>
<wpt lat="36.546029100" lon="-82.518363700">
  <name>Restaurant:Cheddar&apos;s Casual Cafe</name>
  <cmt>Restaurant:Cheddar&apos;s Casual Cafe</cmt>
  <desc>Restaurant:Cheddar&apos;s Casual Cafe</desc>
</wpt>
<wpt lat="36.546925500" lon="-82.517720000">
  <name>Restaurant:Applebee&apos;s Neighborhood Grill</name>
  <cmt>Restaurant:Applebee&apos;s Neighborhood Grill</cmt>
  <desc>Restaurant:Applebee&apos;s Neighborhood Grill</desc>
</wpt>
<wpt lat="37.127824300" lon="-81.527790000">
  <name>Fast Food Restaurant:Coal Bucket Deli</name>
  <cmt>Fast Food Restaurant:Coal Bucket Deli</cmt>
  <desc>Fast Food Restaurant:Coal Bucket Deli</desc>
</wpt>
<wpt lat="37.134516700" lon="-81.505886000">
  <name>Fast Food Restaurant:KFC</name>
  <cmt>Fast Food Restaurant:KFC</cmt>
  <desc>Fast Food Restaurant:KFC</desc>
</wpt>
<wpt lat="37.134496200" lon="-81.505731500">
  <name>Fast Food Restaurant:Pizza Hut</name>
  <cmt>Fast Food Restaurant:Pizza Hut</cmt>
  <desc>Fast Food Restaurant:Pizza Hut</desc>
</wpt>
<wpt lat="37.133469000" lon="-81.498559000">
  <name>Fast Food Restaurant:Subway</name>
  <cmt>Fast Food Restaurant:Subway</cmt>
  <desc>Fast Food Restaurant:Subway</desc>
</wpt>
<wpt lat="37.130470700" lon="-81.493662000">
  <name>Fast Food Restaurant:Long John Silver&apos;s</name>
  <cmt>Fast Food Restaurant:Long John Silver&apos;s</cmt>
  <desc>Fast Food Restaurant:Long John Silver&apos;s</desc>
</wpt>
<wpt lat="37.130299600" lon="-81.492880900">
  <name>Fast Food Restaurant:Hardee&apos;s</name>
  <cmt>Fast Food Restaurant:Hardee&apos;s</cmt>
  <desc>Fast Food Restaurant:Hardee&apos;s</desc>
</wpt>
<wpt lat="37.134304600" lon="-81.492590800">
  <name>Fast Food Restaurant:Sonic&apos;s</name>
  <cmt>Fast Food Restaurant:Sonic&apos;s</cmt>
  <desc>Fast Food Restaurant:Sonic&apos;s</desc>
</wpt>
<wpt lat="37.150649800" lon="-81.484608500">
  <name>Restaurant:Lexie&apos;s BBQ</name>
  <cmt>Restaurant:Lexie&apos;s BBQ</cmt>
  <desc>Restaurant:Lexie&apos;s BBQ</desc>
</wpt>
<wpt lat="37.196689600" lon="-81.400231400">
  <name>Fast Food Restaurant:Subway</name>
  <cmt>Fast Food Restaurant:Subway</cmt>
  <desc>Fast Food Restaurant:Subway</desc>
</wpt>
<wpt lat="37.749954300" lon="-81.139300100">
  <name>Fast Food Restaurant:Pizza Hut</name>
  <cmt>Fast Food Restaurant:Pizza Hut</cmt>
  <desc>Fast Food Restaurant:Pizza Hut</desc>
</wpt>
<wpt lat="37.749360500" lon="-81.138785100">
  <name>Fast Food Restaurant:Dairy Queen</name>
  <cmt>Fast Food Restaurant:Dairy Queen</cmt>
  <desc>Fast Food Restaurant:Dairy Queen</desc>
</wpt>
<wpt lat="37.749784600" lon="-81.137959000">
  <name>Fast Food Restaurant:Wendy&apos;s</name>
  <cmt>Fast Food Restaurant:Wendy&apos;s</cmt>
  <desc>Fast Food Restaurant:Wendy&apos;s</desc>
</wpt>
<wpt lat="37.749335000" lon="-81.135899100">
  <name>Fast Food Restaurant:Long John Silvers</name>
  <cmt>Fast Food Restaurant:Long John Silvers</cmt>
  <desc>Fast Food Restaurant:Long John Silvers</desc>
</wpt>
<wpt lat="37.748580000" lon="-81.134504300">
  <name>Fast Food Restaurant:KFC</name>
  <cmt>Fast Food Restaurant:KFC</cmt>
  <desc>Fast Food Restaurant:KFC</desc>
</wpt>
<wpt lat="37.749598000" lon="-81.133849900">
  <name>Fast Food Restaurant:McDonald&apos;s</name>
  <cmt>Fast Food Restaurant:McDonald&apos;s</cmt>
  <desc>Fast Food Restaurant:McDonald&apos;s</desc>
</wpt>
<wpt lat="37.750539600" lon="-81.133206100">
  <name>Fast Food Restaurant:Subway</name>
  <cmt>Fast Food Restaurant:Subway</cmt>
  <desc>Fast Food Restaurant:Subway</desc>
</wpt>
<wpt lat="38.010345900" lon="-81.130307500">
  <name>Fast Food Restaurant:Burger King</name>
  <cmt>Fast Food Restaurant:Burger King</cmt>
  <desc>Fast Food Restaurant:Burger King</desc>
</wpt>
<wpt lat="38.010190400" lon="-81.129511100">
  <name>Restaurant:Shoney&apos;s</name>
  <cmt>Restaurant:Shoney&apos;s</cmt>
  <desc>Restaurant:Shoney&apos;s</desc>
</wpt>
<wpt lat="38.014360100" lon="-81.125728500">
  <name>Fast Food Restaurant</name>
  <cmt>Fast Food Restaurant</cmt>
  <desc>Fast Food Restaurant</desc>
</wpt>
<wpt lat="38.050117500" lon="-81.117029900">
  <name>Fast Food Restaurant:Dairy Queen</name>
  <cmt>Fast Food Restaurant:Dairy Queen</cmt>
  <desc>Fast Food Restaurant:Dairy Queen</desc>
</wpt>
<wpt lat="37.074909200" lon="-80.693804600">
  <name>Fast Food Restaurant:Subway</name>
  <cmt>Fast Food Restaurant:Subway</cmt>
  <desc>Fast Food Restaurant:Subway</desc>
</wpt>
<wpt lat="37.287709600" lon="-80.618359600">
  <name>Restaurant:The Palisades</name>
  <cmt>Restaurant:The Palisades</cmt>
  <desc>Restaurant:The Palisades</desc>
</wpt>
<wpt lat="37.146917000" lon="-80.585464700">
  <name>Fast Food Restaurant:Hardee&apos;s</name>
  <cmt>Fast Food Restaurant:Hardee&apos;s</cmt>
  <desc>Fast Food Restaurant:Hardee&apos;s</desc>
</wpt>
<wpt lat="37.152151000" lon="-80.582785200">
  <name>Fast Food Restaurant:Subway</name>
  <cmt>Fast Food Restaurant:Subway</cmt>
  <desc>Fast Food Restaurant:Subway</desc>
</wpt>
<wpt lat="37.144146100" lon="-80.582740100">
  <name>Fast Food Restaurant:Wendy&apos;s</name>
  <cmt>Fast Food Restaurant:Wendy&apos;s</cmt>
  <desc>Fast Food Restaurant:Wendy&apos;s</desc>
</wpt>
<wpt lat="37.150659200" lon="-80.582425800">
  <name>Fast Food Restaurant:Taco Bell</name>
  <cmt>Fast Food Restaurant:Taco Bell</cmt>
  <desc>Fast Food Restaurant:Taco Bell</desc>
</wpt>
<wpt lat="37.143881500" lon="-80.582323800">
  <name>Fast Food Restaurant:KFC</name>
  <cmt>Fast Food Restaurant:KFC</cmt>
  <desc>Fast Food Restaurant:KFC</desc>
</wpt>
<wpt lat="37.130521300" lon="-80.582149500">
  <name>Restaurant:El Charro</name>
  <cmt>Restaurant:El Charro</cmt>
  <desc>Restaurant:El Charro</desc>
</wpt>
<wpt lat="37.143684300" lon="-80.581967100">
  <name>Fast Food Restaurant:Long John Silver&apos;s</name>
  <cmt>Fast Food Restaurant:Long John Silver&apos;s</cmt>
  <desc>Fast Food Restaurant:Long John Silver&apos;s</desc>
</wpt>
<wpt lat="37.130658200" lon="-80.581924200">
  <name>Restaurant:Sal&apos;s Italian</name>
  <cmt>Restaurant:Sal&apos;s Italian</cmt>
  <desc>Restaurant:Sal&apos;s Italian</desc>
</wpt>
<wpt lat="37.143196800" lon="-80.581165100">
  <name>Fast Food Restaurant:Burger King</name>
  <cmt>Fast Food Restaurant:Burger King</cmt>
  <desc>Fast Food Restaurant:Burger King</desc>
</wpt>
<wpt lat="37.142350200" lon="-80.580004300">
  <name>Fast Food Restaurant:McDonald&apos;s</name>
  <cmt>Fast Food Restaurant:McDonald&apos;s</cmt>
  <desc>Fast Food Restaurant:McDonald&apos;s</desc>
</wpt>
<wpt lat="37.143077500" lon="-80.579263400">
  <name>Fast Food Restaurant:Bojangle&apos;s</name>
  <cmt>Fast Food Restaurant:Bojangle&apos;s</cmt>
  <desc>Fast Food Restaurant:Bojangle&apos;s</desc>
</wpt>
<wpt lat="37.131384600" lon="-80.578816200">
  <name>Fast Food Restaurant:Arby&apos;s</name>
  <cmt>Fast Food Restaurant:Arby&apos;s</cmt>
  <desc>Fast Food Restaurant:Arby&apos;s</desc>
</wpt>
<wpt lat="37.135482300" lon="-80.573234400">
  <name>Fast Food Restaurant:Sonic</name>
  <cmt>Fast Food Restaurant:Sonic</cmt>
  <desc>Fast Food Restaurant:Sonic</desc>
</wpt>
<wpt lat="37.137467000" lon="-80.570318300">
  <name>Restaurant:Applebee&apos;s</name>
  <cmt>Restaurant:Applebee&apos;s</cmt>
  <desc>Restaurant:Applebee&apos;s</desc>
</wpt>
<wpt lat="37.141110100" lon="-80.558385700">
  <name>Pub:Sharkey&apos;s</name>
  <cmt>Pub:Sharkey&apos;s</cmt>
  <desc>Pub:Sharkey&apos;s</desc>
</wpt>
<wpt lat="37.140607400" lon="-80.557978900">
  <name>Restaurant:River City Grill</name>
  <cmt>Restaurant:River City Grill</cmt>
  <desc>Restaurant:River City Grill</desc>
</wpt>
<wpt lat="37.139066000" lon="-80.553450400">
  <name>Pub:BT&apos;s</name>
  <cmt>Pub:BT&apos;s</cmt>
  <desc>Pub:BT&apos;s</desc>
</wpt>
<wpt lat="37.136794700" lon="-80.548319300">
  <name>Restaurant:Bonnie Hurlburt Student Center &amp; food court</name>
  <cmt>Restaurant:Bonnie Hurlburt Student Center &amp; food court</cmt>
  <desc>Restaurant:Bonnie Hurlburt Student Center &amp; food court</desc>
</wpt>
<wpt lat="37.126637800" lon="-80.538784100">
  <name>Restaurant:Spinnaker&apos;s</name>
  <cmt>Restaurant:Spinnaker&apos;s</cmt>
  <desc>Restaurant:Spinnaker&apos;s</desc>
</wpt>
<wpt lat="37.289722300" lon="-80.499730800">
  <name>Restaurant:Mickie&apos;s 7th</name>
  <cmt>Restaurant:Mickie&apos;s 7th</cmt>
  <desc>Restaurant:Mickie&apos;s 7th</desc>
</wpt>
<wpt lat="37.088422300" lon="-80.450892200">
  <name>Restaurant:Allys</name>
  <cmt>Restaurant:Allys</cmt>
  <desc>Restaurant:Allys</desc>
</wpt>
<wpt lat="37.064968500" lon="-80.441622500">
  <name>Restaurant:Brush Creek Buffalo Store</name>
  <cmt>Restaurant:Brush Creek Buffalo Store</cmt>
  <desc>Restaurant:Brush Creek Buffalo Store</desc>
</wpt>
<wpt lat="37.233843800" lon="-80.434793900">
  <name>Restaurant:Hunan King</name>
  <cmt>Restaurant:Hunan King</cmt>
  <desc>Restaurant:Hunan King</desc>
</wpt>
<wpt lat="37.234116100" lon="-80.434260900">
  <name>Cafe:Easy Chair Coffee Shop</name>
  <cmt>Cafe:Easy Chair Coffee Shop</cmt>
  <desc>Cafe:Easy Chair Coffee Shop</desc>
</wpt>
<wpt lat="37.236318400" lon="-80.434074900">
  <name>Restaurant:Macado&apos;s</name>
  <cmt>Restaurant:Macado&apos;s</cmt>
  <desc>Restaurant:Macado&apos;s</desc>
</wpt>
<wpt lat="37.233847900" lon="-80.434066900">
  <name>Fast Food Restaurant</name>
  <cmt>Fast Food Restaurant</cmt>
  <desc>Fast Food Restaurant</desc>
</wpt>
<wpt lat="37.233790900" lon="-80.433935600">
  <name>Fast Food Restaurant:Log Cabin BBQ</name>
  <cmt>Fast Food Restaurant:Log Cabin BBQ</cmt>
  <desc>Fast Food Restaurant:Log Cabin BBQ</desc>
</wpt>
<wpt lat="37.232758800" lon="-80.433603500">
  <name>Fast Food Restaurant</name>
  <cmt>Fast Food Restaurant</cmt>
  <desc>Fast Food Restaurant</desc>
</wpt>
<wpt lat="37.235516200" lon="-80.433469300">
  <name>Cafe</name>
  <cmt>Cafe</cmt>
  <desc>Cafe</desc>
</wpt>
<wpt lat="37.161516000" lon="-80.433399400">
  <name>Restaurant:Blackstone Grill</name>
  <cmt>Restaurant:Blackstone Grill</cmt>
  <desc>Restaurant:Blackstone Grill</desc>
</wpt>
<wpt lat="37.235510200" lon="-80.433284900">
  <name>Fast Food Restaurant:Five Guys</name>
  <cmt>Fast Food Restaurant:Five Guys</cmt>
  <desc>Fast Food Restaurant:Five Guys</desc>
</wpt>
<wpt lat="37.235160200" lon="-80.433228700">
  <name>Fast Food Restaurant:Subway</name>
  <cmt>Fast Food Restaurant:Subway</cmt>
  <desc>Fast Food Restaurant:Subway</desc>
</wpt>
<wpt lat="37.233388400" lon="-80.433220700">
  <name>Fast Food Restaurant:Panera</name>
  <cmt>Fast Food Restaurant:Panera</cmt>
  <desc>Fast Food Restaurant:Panera</desc>
</wpt>
<wpt lat="37.235369300" lon="-80.432913500">
  <name>Fast Food Restaurant:Kobe Japanese Express</name>
  <cmt>Fast Food Restaurant:Kobe Japanese Express</cmt>
  <desc>Fast Food Restaurant:Kobe Japanese Express</desc>
</wpt>
<wpt lat="37.235393400" lon="-80.432844000">
  <name>Restaurant:Firehouse Pizza</name>
  <cmt>Restaurant:Firehouse Pizza</cmt>
  <desc>Restaurant:Firehouse Pizza</desc>
</wpt>
<wpt lat="37.233604800" lon="-80.432211800">
  <name>Fast Food Restaurant:Firehouse Subs</name>
  <cmt>Fast Food Restaurant:Firehouse Subs</cmt>
  <desc>Fast Food Restaurant:Firehouse Subs</desc>
</wpt>
<wpt lat="37.233943200" lon="-80.431813400">
  <name>Restaurant:Zeppoli&apos;s Italian Restaurant</name>
  <cmt>Restaurant:Zeppoli&apos;s Italian Restaurant</cmt>
  <desc>Restaurant:Zeppoli&apos;s Italian Restaurant</desc>
</wpt>
<wpt lat="37.231908200" lon="-80.431405700">
  <name>Restaurant:Latitudes International Grille</name>
  <cmt>Restaurant:Latitudes International Grille</cmt>
  <desc>Restaurant:Latitudes International Grille</desc>
</wpt>
<wpt lat="37.231883000" lon="-80.431026900">
  <name>Cafe:Attitudes Bar and Cafe</name>
  <cmt>Cafe:Attitudes Bar and Cafe</cmt>
  <desc>Cafe:Attitudes Bar and Cafe</desc>
</wpt>
<wpt lat="37.162510800" lon="-80.426334400">
  <name>Restaurant:Texas Roadhouse</name>
  <cmt>Restaurant:Texas Roadhouse</cmt>
  <desc>Restaurant:Texas Roadhouse</desc>
</wpt>
<wpt lat="37.163573000" lon="-80.426032800">
  <name>Restaurant:Red Robin</name>
  <cmt>Restaurant:Red Robin</cmt>
  <desc>Restaurant:Red Robin</desc>
</wpt>
<wpt lat="37.163906400" lon="-80.425228200">
  <name>Restaurant:Red Lobster</name>
  <cmt>Restaurant:Red Lobster</cmt>
  <desc>Restaurant:Red Lobster</desc>
</wpt>
<wpt lat="37.229445700" lon="-80.424846900">
  <name>Cafe:Seattle&apos;s Best Coffee</name>
  <cmt>Cafe:Seattle&apos;s Best Coffee</cmt>
  <desc>Cafe:Seattle&apos;s Best Coffee</desc>
</wpt>
<wpt lat="37.164393800" lon="-80.424713200">
  <name>Restaurant:IHOP</name>
  <cmt>Restaurant:IHOP</cmt>
  <desc>Restaurant:IHOP</desc>
</wpt>
<wpt lat="37.229159600" lon="-80.424496500">
  <name>Fast Food Restaurant:Subway</name>
  <cmt>Fast Food Restaurant:Subway</cmt>
  <desc>Fast Food Restaurant:Subway</desc>
</wpt>
<wpt lat="37.165060700" lon="-80.424090900">
  <name>Restaurant:Ryan&apos;s</name>
  <cmt>Restaurant:Ryan&apos;s</cmt>
  <desc>Restaurant:Ryan&apos;s</desc>
</wpt>
<wpt lat="37.165924200" lon="-80.423804500">
  <name>Restaurant:Olive Garden</name>
  <cmt>Restaurant:Olive Garden</cmt>
  <desc>Restaurant:Olive Garden</desc>
</wpt>
<wpt lat="37.161617600" lon="-80.421970800">
  <name>Fast Food Restaurant:Wendy&apos;s</name>
  <cmt>Fast Food Restaurant:Wendy&apos;s</cmt>
  <desc>Fast Food Restaurant:Wendy&apos;s</desc>
</wpt>
<wpt lat="37.159223500" lon="-80.421648400">
  <name>Fast Food Restaurant:Chick-fil-a</name>
  <cmt>Fast Food Restaurant:Chick-fil-a</cmt>
  <desc>Fast Food Restaurant:Chick-fil-a</desc>
</wpt>
<wpt lat="37.234899700" lon="-80.421502000">
  <name>Fast Food Restaurant:Gumby&apos;s Pizza</name>
  <cmt>Fast Food Restaurant:Gumby&apos;s Pizza</cmt>
  <desc>Fast Food Restaurant:Gumby&apos;s Pizza</desc>
</wpt>
<wpt lat="37.224269000" lon="-80.421223000">
  <name>Cafe:Deet&apos;s Place</name>
  <cmt>Cafe:Deet&apos;s Place</cmt>
  <desc>Cafe:Deet&apos;s Place</desc>
</wpt>
<wpt lat="37.224516600" lon="-80.420825400">
  <name>Fast Food Restaurant:DXpress</name>
  <cmt>Fast Food Restaurant:DXpress</cmt>
  <desc>Fast Food Restaurant:DXpress</desc>
</wpt>
<wpt lat="37.234706800" lon="-80.419788300">
  <name>Cafe:Mill Mountain Coffee and Tea</name>
  <cmt>Cafe:Mill Mountain Coffee and Tea</cmt>
  <desc>Cafe:Mill Mountain Coffee and Tea</desc>
</wpt>
<wpt lat="37.233977400" lon="-80.419684200">
  <name>Restaurant:El Rodeo</name>
  <cmt>Restaurant:El Rodeo</cmt>
  <desc>Restaurant:El Rodeo</desc>
</wpt>
<wpt lat="37.234053300" lon="-80.418656400">
  <name>Fast Food Restaurant</name>
  <cmt>Fast Food Restaurant</cmt>
  <desc>Fast Food Restaurant</desc>
</wpt>
<wpt lat="37.226753900" lon="-80.418601700">
  <name>Fast Food Restaurant:Chick-Fil-A</name>
  <cmt>Fast Food Restaurant:Chick-Fil-A</cmt>
  <desc>Fast Food Restaurant:Chick-Fil-A</desc>
</wpt>
<wpt lat="37.226856400" lon="-80.418515900">
  <name>Fast Food Restaurant:Pizza Hut</name>
  <cmt>Fast Food Restaurant:Pizza Hut</cmt>
  <desc>Fast Food Restaurant:Pizza Hut</desc>
</wpt>
<wpt lat="37.229193200" lon="-80.418276100">
  <name>Fast Food Restaurant:Sbarro</name>
  <cmt>Fast Food Restaurant:Sbarro</cmt>
  <desc>Fast Food Restaurant:Sbarro</desc>
</wpt>
<wpt lat="37.229325600" lon="-80.417991800">
  <name>Fast Food Restaurant:Au Bon Pain</name>
  <cmt>Fast Food Restaurant:Au Bon Pain</cmt>
  <desc>Fast Food Restaurant:Au Bon Pain</desc>
</wpt>
<wpt lat="37.229708200" lon="-80.416498400">
  <name>Pub:Top of the Stairs</name>
  <cmt>Pub:Top of the Stairs</cmt>
  <desc>Pub:Top of the Stairs</desc>
</wpt>
<wpt lat="37.229795800" lon="-80.416458200">
  <name>Fast Food Restaurant:Jimmy John&apos;s</name>
  <cmt>Fast Food Restaurant:Jimmy John&apos;s</cmt>
  <desc>Fast Food Restaurant:Jimmy John&apos;s</desc>
</wpt>
<wpt lat="37.232079000" lon="-80.416313900">
  <name>Pub:PK&apos;s Bar &amp; Grill</name>
  <cmt>Pub:PK&apos;s Bar &amp; Grill</cmt>
  <desc>Pub:PK&apos;s Bar &amp; Grill</desc>
</wpt>
<wpt lat="37.229897300" lon="-80.416267200">
  <name>Restaurant:Souvlakis</name>
  <cmt>Restaurant:Souvlakis</cmt>
  <desc>Restaurant:Souvlakis</desc>
</wpt>
<wpt lat="37.230022400" lon="-80.416103200">
  <name>Restaurant:Guillie&apos;s</name>
  <cmt>Restaurant:Guillie&apos;s</cmt>
  <desc>Restaurant:Guillie&apos;s</desc>
</wpt>
<wpt lat="37.230036900" lon="-80.416069200">
  <name>Restaurant:Gillie&apos;s</name>
  <cmt>Restaurant:Gillie&apos;s</cmt>
  <desc>Restaurant:Gillie&apos;s</desc>
</wpt>
<wpt lat="37.230057500" lon="-80.416005300">
  <name>Restaurant</name>
  <cmt>Restaurant</cmt>
  <desc>Restaurant</desc>
</wpt>
<wpt lat="37.229906600" lon="-80.415938900">
  <name>Pub:The Rivermill</name>
  <cmt>Pub:The Rivermill</cmt>
  <desc>Pub:The Rivermill</desc>
</wpt>
<wpt lat="37.231686600" lon="-80.415861600">
  <name>Restaurant:Mikes Grill</name>
  <cmt>Restaurant:Mikes Grill</cmt>
  <desc>Restaurant:Mikes Grill</desc>
</wpt>
<wpt lat="37.229815700" lon="-80.415846100">
  <name>Cafe:Bollo&apos;s Cafe &amp; Bakery Inc</name>
  <cmt>Cafe:Bollo&apos;s Cafe &amp; Bakery Inc</cmt>
  <desc>Cafe:Bollo&apos;s Cafe &amp; Bakery Inc</desc>
</wpt>
<wpt lat="37.230231700" lon="-80.415787200">
  <name>Fast Food Restaurant:Happy Wok</name>
  <cmt>Fast Food Restaurant:Happy Wok</cmt>
  <desc>Fast Food Restaurant:Happy Wok</desc>
</wpt>
<wpt lat="37.231358800" lon="-80.415491400">
  <name>Pub:Hokie House Restaurant</name>
  <cmt>Pub:Hokie House Restaurant</cmt>
  <desc>Pub:Hokie House Restaurant</desc>
</wpt>
<wpt lat="37.230418900" lon="-80.415470600">
  <name>Restaurant:Greens</name>
  <cmt>Restaurant:Greens</cmt>
  <desc>Restaurant:Greens</desc>
</wpt>
<wpt lat="37.230504800" lon="-80.415355800">
  <name>Fast Food Restaurant:Moe&apos;s Southwest Grill</name>
  <cmt>Fast Food Restaurant:Moe&apos;s Southwest Grill</cmt>
  <desc>Fast Food Restaurant:Moe&apos;s Southwest Grill</desc>
</wpt>
<wpt lat="37.229418200" lon="-80.415301400">
  <name>Restaurant:Benny Marzano&apos;s Pizza</name>
  <cmt>Restaurant:Benny Marzano&apos;s Pizza</cmt>
  <desc>Restaurant:Benny Marzano&apos;s Pizza</desc>
</wpt>
<wpt lat="37.229446400" lon="-80.415282000">
  <name>Restaurant:Benny Marzano&apos;s Pizza</name>
  <cmt>Restaurant:Benny Marzano&apos;s Pizza</cmt>
  <desc>Restaurant:Benny Marzano&apos;s Pizza</desc>
</wpt>
<wpt lat="37.230428100" lon="-80.415268300">
  <name>Cafe:More Than Coffee</name>
  <cmt>Cafe:More Than Coffee</cmt>
  <desc>Cafe:More Than Coffee</desc>
</wpt>
<wpt lat="37.247550000" lon="-80.415191900">
  <name>Restaurant:Chinese Kitchen</name>
  <cmt>Restaurant:Chinese Kitchen</cmt>
  <desc>Restaurant:Chinese Kitchen</desc>
</wpt>
<wpt lat="37.230429500" lon="-80.415169800">
  <name>Restaurant:More Than Coffee: mediterranean cuisine</name>
  <cmt>Restaurant:More Than Coffee: mediterranean cuisine</cmt>
  <desc>Restaurant:More Than Coffee: mediterranean cuisine</desc>
</wpt>
<wpt lat="37.230628400" lon="-80.415139300">
  <name>Pub:Sharkeys</name>
  <cmt>Pub:Sharkeys</cmt>
  <desc>Pub:Sharkeys</desc>
</wpt>
<wpt lat="37.230884200" lon="-80.415073000">
  <name>Pub:The Cellar</name>
  <cmt>Pub:The Cellar</cmt>
  <desc>Pub:The Cellar</desc>
</wpt>
<wpt lat="37.230064700" lon="-80.414925400">
  <name>Restaurant:Boudreaux&apos;S</name>
  <cmt>Restaurant:Boudreaux&apos;S</cmt>
  <desc>Restaurant:Boudreaux&apos;S</desc>
</wpt>
<wpt lat="37.229988300" lon="-80.414920800">
  <name>Restaurant:Poor Billy&apos;S</name>
  <cmt>Restaurant:Poor Billy&apos;S</cmt>
  <desc>Restaurant:Poor Billy&apos;S</desc>
</wpt>
<wpt lat="37.229342900" lon="-80.414560400">
  <name>Restaurant:The Excellent Table Ethiopian</name>
  <cmt>Restaurant:The Excellent Table Ethiopian</cmt>
  <desc>Restaurant:The Excellent Table Ethiopian</desc>
</wpt>
<wpt lat="37.229442800" lon="-80.414232100">
  <name>Pub:Champs Sportsbar &amp; Cafe</name>
  <cmt>Pub:Champs Sportsbar &amp; Cafe</cmt>
  <desc>Pub:Champs Sportsbar &amp; Cafe</desc>
</wpt>
<wpt lat="37.229621900" lon="-80.414086800">
  <name>Pub:London Underground Pub</name>
  <cmt>Pub:London Underground Pub</cmt>
  <desc>Pub:London Underground Pub</desc>
</wpt>
<wpt lat="37.150654300" lon="-80.413988700">
  <name>Fast Food Restaurant:McDonald&apos;s</name>
  <cmt>Fast Food Restaurant:McDonald&apos;s</cmt>
  <desc>Fast Food Restaurant:McDonald&apos;s</desc>
</wpt>
<wpt lat="37.227684900" lon="-80.413127700">
  <name>Restaurant:Awful Arthur&apos;s</name>
  <cmt>Restaurant:Awful Arthur&apos;s</cmt>
  <desc>Restaurant:Awful Arthur&apos;s</desc>
</wpt>
<wpt lat="37.228129200" lon="-80.412916500">
  <name>Fast Food Restaurant</name>
  <cmt>Fast Food Restaurant</cmt>
  <desc>Fast Food Restaurant</desc>
</wpt>
<wpt lat="37.201389400" lon="-80.398903800">
  <name>Fast Food Restaurant:Bojangle&apos;s</name>
  <cmt>Fast Food Restaurant:Bojangle&apos;s</cmt>
  <desc>Fast Food Restaurant:Bojangle&apos;s</desc>
</wpt>
<wpt lat="37.132451600" lon="-80.376894900">
  <name>Fast Food Restaurant:Long John Silver&apos;s</name>
  <cmt>Fast Food Restaurant:Long John Silver&apos;s</cmt>
  <desc>Fast Food Restaurant:Long John Silver&apos;s</desc>
</wpt>
<wpt lat="36.911484300" lon="-80.320419100">
  <name>Restaurant:Oddfellows Cantina</name>
  <cmt>Restaurant:Oddfellows Cantina</cmt>
  <desc>Restaurant:Oddfellows Cantina</desc>
</wpt>
<wpt lat="36.909867000" lon="-80.319861200">
  <name>Restaurant:Dogtown Pizza</name>
  <cmt>Restaurant:Dogtown Pizza</cmt>
  <desc>Restaurant:Dogtown Pizza</desc>
</wpt>
<wpt lat="37.568426200" lon="-80.261590600">
  <name>Restaurant:The Swinging Bridge Restaurant</name>
  <cmt>Restaurant:The Swinging Bridge Restaurant</cmt>
  <desc>Restaurant:The Swinging Bridge Restaurant</desc>
</wpt>
<wpt lat="37.380971700" lon="-80.111423700">
  <name>Restaurant:Homeplace Restaurant</name>
  <cmt>Restaurant:Homeplace Restaurant</cmt>
  <desc>Restaurant:Homeplace Restaurant</desc>
</wpt>
<wpt lat="37.384626400" lon="-79.800029600">
  <name>Restaurant:Bugers</name>
  <cmt>Restaurant:Bugers</cmt>
  <desc>Restaurant:Bugers</desc>
</wpt>
<wpt lat="37.995666200" lon="-79.623406300">
  <name>Restaurant:Lickety Splits</name>
  <cmt>Restaurant:Lickety Splits</cmt>
  <desc>Restaurant:Lickety Splits</desc>
</wpt>
<wpt lat="37.116721400" lon="-79.571009500">
  <name>Restaurant:White House Restaurant</name>
  <cmt>Restaurant:White House Restaurant</cmt>
  <desc>Restaurant:White House Restaurant</desc>
</wpt>
<wpt lat="37.333432400" lon="-79.518722200">
  <name>Fast Food Restaurant:Hardee&apos;s</name>
  <cmt>Fast Food Restaurant:Hardee&apos;s</cmt>
  <desc>Fast Food Restaurant:Hardee&apos;s</desc>
</wpt>
<wpt lat="37.326112700" lon="-79.502853100">
  <name>Restaurant:Ruby Tuesday</name>
  <cmt>Restaurant:Ruby Tuesday</cmt>
  <desc>Restaurant:Ruby Tuesday</desc>
</wpt>
<wpt lat="37.323843300" lon="-79.496105800">
  <name>Fast Food Restaurant:McDonald&apos;s</name>
  <cmt>Fast Food Restaurant:McDonald&apos;s</cmt>
  <desc>Fast Food Restaurant:McDonald&apos;s</desc>
</wpt>
<wpt lat="37.323604400" lon="-79.495311800">
  <name>Fast Food Restaurant:Arbys</name>
  <cmt>Fast Food Restaurant:Arbys</cmt>
  <desc>Fast Food Restaurant:Arbys</desc>
</wpt>
<wpt lat="36.733789700" lon="-79.382371300">
  <name>Restaurant:Bojangles</name>
  <cmt>Restaurant:Bojangles</cmt>
  <desc>Restaurant:Bojangles</desc>
</wpt>
<wpt lat="37.369156200" lon="-79.307560000">
  <name>Restaurant:Faria&apos;s Twin Oaks</name>
  <cmt>Restaurant:Faria&apos;s Twin Oaks</cmt>
  <desc>Restaurant:Faria&apos;s Twin Oaks</desc>
</wpt>
<wpt lat="37.371980200" lon="-79.304427200">
  <name>Restaurant:Lori&apos;s</name>
  <cmt>Restaurant:Lori&apos;s</cmt>
  <desc>Restaurant:Lori&apos;s</desc>
</wpt>
<wpt lat="37.372499200" lon="-79.302930800">
  <name>Fast Food Restaurant:Sonic</name>
  <cmt>Fast Food Restaurant:Sonic</cmt>
  <desc>Fast Food Restaurant:Sonic</desc>
</wpt>
<wpt lat="37.368883400" lon="-79.300401700">
  <name>Restaurant:La Carreta</name>
  <cmt>Restaurant:La Carreta</cmt>
  <desc>Restaurant:La Carreta</desc>
</wpt>
<wpt lat="37.365595400" lon="-79.296642300">
  <name>Restaurant:Lil&apos; Cucci&apos;s</name>
  <cmt>Restaurant:Lil&apos; Cucci&apos;s</cmt>
  <desc>Restaurant:Lil&apos; Cucci&apos;s</desc>
</wpt>
<wpt lat="37.365070200" lon="-79.295706900">
  <name>Fast Food Restaurant:Subway</name>
  <cmt>Fast Food Restaurant:Subway</cmt>
  <desc>Fast Food Restaurant:Subway</desc>
</wpt>
<wpt lat="37.366291200" lon="-79.294960100">
  <name>Restaurant:Benjamin&apos;s</name>
  <cmt>Restaurant:Benjamin&apos;s</cmt>
  <desc>Restaurant:Benjamin&apos;s</desc>
</wpt>
<wpt lat="37.363902700" lon="-79.291300300">
  <name>Restaurant:Carol&apos;s Place</name>
  <cmt>Restaurant:Carol&apos;s Place</cmt>
  <desc>Restaurant:Carol&apos;s Place</desc>
</wpt>
<wpt lat="37.376321300" lon="-79.248439800">
  <name>Fast Food Restaurant:McDonald&apos;s</name>
  <cmt>Fast Food Restaurant:McDonald&apos;s</cmt>
  <desc>Fast Food Restaurant:McDonald&apos;s</desc>
</wpt>
<wpt lat="37.377780900" lon="-79.247950500">
  <name>Fast Food Restaurant:Burger King</name>
  <cmt>Fast Food Restaurant:Burger King</cmt>
  <desc>Fast Food Restaurant:Burger King</desc>
</wpt>
<wpt lat="37.374738900" lon="-79.247152300">
  <name>Restaurant:China Royal</name>
  <cmt>Restaurant:China Royal</cmt>
  <desc>Restaurant:China Royal</desc>
</wpt>
<wpt lat="37.377742800" lon="-79.246531000">
  <name>Restaurant:Quizno&apos;s Subs</name>
  <cmt>Restaurant:Quizno&apos;s Subs</cmt>
  <desc>Restaurant:Quizno&apos;s Subs</desc>
</wpt>
<wpt lat="37.377555900" lon="-79.245427100">
  <name>Restaurant:Bull&apos;s</name>
  <cmt>Restaurant:Bull&apos;s</cmt>
  <desc>Restaurant:Bull&apos;s</desc>
</wpt>
<wpt lat="37.334414500" lon="-79.242908500">
  <name>Fast Food Restaurant:McDonald&apos;s</name>
  <cmt>Fast Food Restaurant:McDonald&apos;s</cmt>
  <desc>Fast Food Restaurant:McDonald&apos;s</desc>
</wpt>
<wpt lat="37.385640700" lon="-79.241810400">
  <name>Fast Food Restaurant:Subway</name>
  <cmt>Fast Food Restaurant:Subway</cmt>
  <desc>Fast Food Restaurant:Subway</desc>
</wpt>
<wpt lat="37.334687500" lon="-79.241269100">
  <name>Fast Food Restaurant:Burger King</name>
  <cmt>Fast Food Restaurant:Burger King</cmt>
  <desc>Fast Food Restaurant:Burger King</desc>
</wpt>
<wpt lat="37.344235000" lon="-79.235298700">
  <name>Fast Food Restaurant:Hardee&apos;s</name>
  <cmt>Fast Food Restaurant:Hardee&apos;s</cmt>
  <desc>Fast Food Restaurant:Hardee&apos;s</desc>
</wpt>
<wpt lat="37.344445400" lon="-79.233843100">
  <name>Fast Food Restaurant:KFC;Long John Silver&apos;s</name>
  <cmt>Fast Food Restaurant:KFC;Long John Silver&apos;s</cmt>
  <desc>Fast Food Restaurant:KFC;Long John Silver&apos;s</desc>
</wpt>
<wpt lat="37.348039700" lon="-79.232753600">
  <name>Fast Food Restaurant:Taco Bell</name>
  <cmt>Fast Food Restaurant:Taco Bell</cmt>
  <desc>Fast Food Restaurant:Taco Bell</desc>
</wpt>
<wpt lat="37.349633400" lon="-79.231084100">
  <name>Fast Food Restaurant:Dairy Queen</name>
  <cmt>Fast Food Restaurant:Dairy Queen</cmt>
  <desc>Fast Food Restaurant:Dairy Queen</desc>
</wpt>
<wpt lat="37.929230900" lon="-79.229707200">
  <name>Restaurant:White&apos;s Truck Stop</name>
  <cmt>Restaurant:White&apos;s Truck Stop</cmt>
  <desc>Restaurant:White&apos;s Truck Stop</desc>
</wpt>
<wpt lat="37.351260000" lon="-79.228878500">
  <name>Fast Food Restaurant:Wendy&apos;s</name>
  <cmt>Fast Food Restaurant:Wendy&apos;s</cmt>
  <desc>Fast Food Restaurant:Wendy&apos;s</desc>
</wpt>
<wpt lat="37.395416800" lon="-79.228595700">
  <name>Restaurant:Famous Anthony&apos;s</name>
  <cmt>Restaurant:Famous Anthony&apos;s</cmt>
  <desc>Restaurant:Famous Anthony&apos;s</desc>
</wpt>
<wpt lat="37.352434100" lon="-79.227394200">
  <name>Fast Food Restaurant:Bojangles</name>
  <cmt>Fast Food Restaurant:Bojangles</cmt>
  <desc>Fast Food Restaurant:Bojangles</desc>
</wpt>
<wpt lat="37.352819100" lon="-79.226950800">
  <name>Restaurant:T.G.I. Friday&apos;s</name>
  <cmt>Restaurant:T.G.I. Friday&apos;s</cmt>
  <desc>Restaurant:T.G.I. Friday&apos;s</desc>
</wpt>
<wpt lat="37.353226700" lon="-79.225806100">
  <name>Fast Food Restaurant:Captain D&apos;s</name>
  <cmt>Fast Food Restaurant:Captain D&apos;s</cmt>
  <desc>Fast Food Restaurant:Captain D&apos;s</desc>
</wpt>
<wpt lat="37.408885700" lon="-79.216095500">
  <name>Restaurant:Fat Tuna</name>
  <cmt>Restaurant:Fat Tuna</cmt>
  <desc>Restaurant:Fat Tuna</desc>
</wpt>
<wpt lat="37.375229400" lon="-79.215494500">
  <name>Restaurant:Charleys</name>
  <cmt>Restaurant:Charleys</cmt>
  <desc>Restaurant:Charleys</desc>
</wpt>
<wpt lat="38.051378700" lon="-79.214463300">
  <name>Cafe:Middlebrook Country Store Cafe</name>
  <cmt>Cafe:Middlebrook Country Store Cafe</cmt>
  <desc>Cafe:Middlebrook Country Store Cafe</desc>
</wpt>
<wpt lat="37.412539900" lon="-79.212696600">
  <name>Restaurant:Monte Carlo</name>
  <cmt>Restaurant:Monte Carlo</cmt>
  <desc>Restaurant:Monte Carlo</desc>
</wpt>
<wpt lat="37.410503100" lon="-79.212549200">
  <name>Restaurant:Biscuitville</name>
  <cmt>Restaurant:Biscuitville</cmt>
  <desc>Restaurant:Biscuitville</desc>
</wpt>
<wpt lat="37.413323900" lon="-79.212430500">
  <name>Restaurant:Harbor Inn</name>
  <cmt>Restaurant:Harbor Inn</cmt>
  <desc>Restaurant:Harbor Inn</desc>
</wpt>
<wpt lat="37.412503100" lon="-79.211618400">
  <name>Restaurant:Applebee&apos;s</name>
  <cmt>Restaurant:Applebee&apos;s</cmt>
  <desc>Restaurant:Applebee&apos;s</desc>
</wpt>
<wpt lat="37.414786200" lon="-79.208456900">
  <name>Fast Food Restaurant:McDonald&apos;s</name>
  <cmt>Fast Food Restaurant:McDonald&apos;s</cmt>
  <desc>Fast Food Restaurant:McDonald&apos;s</desc>
</wpt>
<wpt lat="37.414146600" lon="-79.208290300">
  <name>Restaurant:Dairy Queen</name>
  <cmt>Restaurant:Dairy Queen</cmt>
  <desc>Restaurant:Dairy Queen</desc>
</wpt>
<wpt lat="37.368901600" lon="-79.198305400">
  <name>Restaurant:Crown Sterling</name>
  <cmt>Restaurant:Crown Sterling</cmt>
  <desc>Restaurant:Crown Sterling</desc>
</wpt>
<wpt lat="37.347834300" lon="-79.190580100">
  <name>Restaurant:Five Guys</name>
  <cmt>Restaurant:Five Guys</cmt>
  <desc>Restaurant:Five Guys</desc>
</wpt>
<wpt lat="37.347886700" lon="-79.190539900">
  <name>Fast Food Restaurant:Subway</name>
  <cmt>Fast Food Restaurant:Subway</cmt>
  <desc>Fast Food Restaurant:Subway</desc>
</wpt>
<wpt lat="37.343566900" lon="-79.190087900">
  <name>Restaurant:Logan&apos;s</name>
  <cmt>Restaurant:Logan&apos;s</cmt>
  <desc>Restaurant:Logan&apos;s</desc>
</wpt>
<wpt lat="37.344112800" lon="-79.189770400">
  <name>Restaurant:O&apos;Charley&apos;s</name>
  <cmt>Restaurant:O&apos;Charley&apos;s</cmt>
  <desc>Restaurant:O&apos;Charley&apos;s</desc>
</wpt>
<wpt lat="37.344795200" lon="-79.189100900">
  <name>Restaurant:Olive Garden</name>
  <cmt>Restaurant:Olive Garden</cmt>
  <desc>Restaurant:Olive Garden</desc>
</wpt>
<wpt lat="37.345956200" lon="-79.188473500">
  <name>Fast Food Restaurant:McDonald&apos;s</name>
  <cmt>Fast Food Restaurant:McDonald&apos;s</cmt>
  <desc>Fast Food Restaurant:McDonald&apos;s</desc>
</wpt>
<wpt lat="37.347817900" lon="-79.185667700">
  <name>Restaurant:Golden Corral</name>
  <cmt>Restaurant:Golden Corral</cmt>
  <desc>Restaurant:Golden Corral</desc>
</wpt>
<wpt lat="37.348582100" lon="-79.185375800">
  <name>Restaurant:Chick Fil-A</name>
  <cmt>Restaurant:Chick Fil-A</cmt>
  <desc>Restaurant:Chick Fil-A</desc>
</wpt>
<wpt lat="37.376521100" lon="-79.185139300">
  <name>Restaurant:Waffle House</name>
  <cmt>Restaurant:Waffle House</cmt>
  <desc>Restaurant:Waffle House</desc>
</wpt>
<wpt lat="37.355234400" lon="-79.184749300">
  <name>Restaurant:Texas Roadhouse</name>
  <cmt>Restaurant:Texas Roadhouse</cmt>
  <desc>Restaurant:Texas Roadhouse</desc>
</wpt>
<wpt lat="37.349883900" lon="-79.184470100">
  <name>Restaurant:Moe&apos;s Southwest Grill</name>
  <cmt>Restaurant:Moe&apos;s Southwest Grill</cmt>
  <desc>Restaurant:Moe&apos;s Southwest Grill</desc>
</wpt>
<wpt lat="37.355964300" lon="-79.184409100">
  <name>Restaurant:Buffalo Wild Wings</name>
  <cmt>Restaurant:Buffalo Wild Wings</cmt>
  <desc>Restaurant:Buffalo Wild Wings</desc>
</wpt>
<wpt lat="37.350944400" lon="-79.184014000">
  <name>Restaurant:Panera Bread</name>
  <cmt>Restaurant:Panera Bread</cmt>
  <desc>Restaurant:Panera Bread</desc>
</wpt>
<wpt lat="37.351308200" lon="-79.183783400">
  <name>Cafe:Starbucks</name>
  <cmt>Cafe:Starbucks</cmt>
  <desc>Cafe:Starbucks</desc>
</wpt>
<wpt lat="37.355643800" lon="-79.183762200">
  <name>Restaurant:Ruby Tuesday</name>
  <cmt>Restaurant:Ruby Tuesday</cmt>
  <desc>Restaurant:Ruby Tuesday</desc>
</wpt>
<wpt lat="37.354866000" lon="-79.183719300">
  <name>Restaurant:Cracker Barrel</name>
  <cmt>Restaurant:Cracker Barrel</cmt>
  <desc>Restaurant:Cracker Barrel</desc>
</wpt>
<wpt lat="37.353278300" lon="-79.182807100">
  <name>Fast Food Restaurant:Sonic Drive-In</name>
  <cmt>Fast Food Restaurant:Sonic Drive-In</cmt>
  <desc>Fast Food Restaurant:Sonic Drive-In</desc>
</wpt>
<wpt lat="37.367044000" lon="-79.181238700">
  <name>Restaurant:Ham&apos;s</name>
  <cmt>Restaurant:Ham&apos;s</cmt>
  <desc>Restaurant:Ham&apos;s</desc>
</wpt>
<wpt lat="37.367112200" lon="-79.175445100">
  <name>Restaurant:Shaker&apos;s</name>
  <cmt>Restaurant:Shaker&apos;s</cmt>
  <desc>Restaurant:Shaker&apos;s</desc>
</wpt>
<wpt lat="37.358735500" lon="-79.170908700">
  <name>Restaurant:Macado&apos;s</name>
  <cmt>Restaurant:Macado&apos;s</cmt>
  <desc>Restaurant:Macado&apos;s</desc>
</wpt>
<wpt lat="37.363238100" lon="-79.170754200">
  <name>Restaurant:Applebee&apos;s</name>
  <cmt>Restaurant:Applebee&apos;s</cmt>
  <desc>Restaurant:Applebee&apos;s</desc>
</wpt>
<wpt lat="37.358449000" lon="-79.170376600">
  <name>Fast Food Restaurant:Hardee&apos;s</name>
  <cmt>Fast Food Restaurant:Hardee&apos;s</cmt>
  <desc>Fast Food Restaurant:Hardee&apos;s</desc>
</wpt>
<wpt lat="37.358790100" lon="-79.170067600">
  <name>Restaurant:Sundae Grille</name>
  <cmt>Restaurant:Sundae Grille</cmt>
  <desc>Restaurant:Sundae Grille</desc>
</wpt>
<wpt lat="37.359815300" lon="-79.168302000">
  <name>Restaurant:Pueblo Viejo</name>
  <cmt>Restaurant:Pueblo Viejo</cmt>
  <desc>Restaurant:Pueblo Viejo</desc>
</wpt>
<wpt lat="37.360088200" lon="-79.168302000">
  <name>Restaurant:Honey Baked Ham &amp; Cafe</name>
  <cmt>Restaurant:Honey Baked Ham &amp; Cafe</cmt>
  <desc>Restaurant:Honey Baked Ham &amp; Cafe</desc>
</wpt>
<wpt lat="37.361109600" lon="-79.168076300">
  <name>Restaurant:Cici&apos;s Pizza</name>
  <cmt>Restaurant:Cici&apos;s Pizza</cmt>
  <desc>Restaurant:Cici&apos;s Pizza</desc>
</wpt>
<wpt lat="37.401185800" lon="-79.167767700">
  <name>Fast Food Restaurant:Wendy&apos;s</name>
  <cmt>Fast Food Restaurant:Wendy&apos;s</cmt>
  <desc>Fast Food Restaurant:Wendy&apos;s</desc>
</wpt>
<wpt lat="37.402405800" lon="-79.167267100">
  <name>Fast Food Restaurant:Burger King</name>
  <cmt>Fast Food Restaurant:Burger King</cmt>
  <desc>Fast Food Restaurant:Burger King</desc>
</wpt>
<wpt lat="37.386719600" lon="-79.164794900">
  <name>Restaurant:Outback</name>
  <cmt>Restaurant:Outback</cmt>
  <desc>Restaurant:Outback</desc>
</wpt>
<wpt lat="37.424351900" lon="-79.159499500">
  <name>Drinking water source</name>
  <cmt>Drinking water source</cmt>
  <desc>Drinking water source</desc>
</wpt>
<wpt lat="37.418338800" lon="-79.145196600">
  <name>Restaurant:Texas Inn</name>
  <cmt>Restaurant:Texas Inn</cmt>
  <desc>Restaurant:Texas Inn</desc>
</wpt>
<wpt lat="37.415681600" lon="-79.139432800">
  <name>Restaurant:Depot Grill</name>
  <cmt>Restaurant:Depot Grill</cmt>
  <desc>Restaurant:Depot Grill</desc>
</wpt>
<wpt lat="37.412002100" lon="-79.137275900">
  <name>Restaurant:WaterStone</name>
  <cmt>Restaurant:WaterStone</cmt>
  <desc>Restaurant:WaterStone</desc>
</wpt>
<wpt lat="38.136924900" lon="-79.067773100">
  <name>Fast Food Restaurant:Wendy&apos;s</name>
  <cmt>Fast Food Restaurant:Wendy&apos;s</cmt>
  <desc>Fast Food Restaurant:Wendy&apos;s</desc>
</wpt>
<wpt lat="38.122839500" lon="-79.066243700">
  <name>Restaurant:Appleby&apos;s</name>
  <cmt>Restaurant:Appleby&apos;s</cmt>
  <desc>Restaurant:Appleby&apos;s</desc>
</wpt>
<wpt lat="38.123033600" lon="-79.064924100">
  <name>Restaurant:Red Lobster</name>
  <cmt>Restaurant:Red Lobster</cmt>
  <desc>Restaurant:Red Lobster</desc>
</wpt>
<wpt lat="38.123835400" lon="-79.064726100">
  <name>Fast Food Restaurant:McDonalds</name>
  <cmt>Fast Food Restaurant:McDonalds</cmt>
  <desc>Fast Food Restaurant:McDonalds</desc>
</wpt>
<wpt lat="37.563491400" lon="-79.064628700">
  <name>Fast Food Restaurant:Hardee&apos;s</name>
  <cmt>Fast Food Restaurant:Hardee&apos;s</cmt>
  <desc>Fast Food Restaurant:Hardee&apos;s</desc>
</wpt>
<wpt lat="38.135203400" lon="-79.064436500">
  <name>Fast Food Restaurant:Subway</name>
  <cmt>Fast Food Restaurant:Subway</cmt>
  <desc>Fast Food Restaurant:Subway</desc>
</wpt>
<wpt lat="38.134832100" lon="-79.064136100">
  <name>Fast Food Restaurant:Kentucky Chicken</name>
  <cmt>Fast Food Restaurant:Kentucky Chicken</cmt>
  <desc>Fast Food Restaurant:Kentucky Chicken</desc>
</wpt>
<wpt lat="38.133085200" lon="-79.063889300">
  <name>Fast Food Restaurant:Arby&apos;s</name>
  <cmt>Fast Food Restaurant:Arby&apos;s</cmt>
  <desc>Fast Food Restaurant:Arby&apos;s</desc>
</wpt>
<wpt lat="38.132798300" lon="-79.062902200">
  <name>Fast Food Restaurant:Burger King</name>
  <cmt>Fast Food Restaurant:Burger King</cmt>
  <desc>Fast Food Restaurant:Burger King</desc>
</wpt>
<wpt lat="38.251694300" lon="-78.955197800">
  <name>Drinking water source</name>
  <cmt>Drinking water source</cmt>
  <desc>Drinking water source</desc>
</wpt>
<wpt lat="38.249781700" lon="-78.954414600">
  <name>Drinking water source</name>
  <cmt>Drinking water source</cmt>
  <desc>Drinking water source</desc>
</wpt>
<wpt lat="38.063162700" lon="-78.940204900">
  <name>Restaurant:Cracker Barrel</name>
  <cmt>Restaurant:Cracker Barrel</cmt>
  <desc>Restaurant:Cracker Barrel</desc>
</wpt>
<wpt lat="38.064620900" lon="-78.939741900">
  <name>Restaurant:Golden Corral</name>
  <cmt>Restaurant:Golden Corral</cmt>
  <desc>Restaurant:Golden Corral</desc>
</wpt>
<wpt lat="38.064622300" lon="-78.937140800">
  <name>Restaurant:Applebees</name>
  <cmt>Restaurant:Applebees</cmt>
  <desc>Restaurant:Applebees</desc>
</wpt>
<wpt lat="38.062124800" lon="-78.937024800">
  <name>Fast Food Restaurant:Wendey&apos;s</name>
  <cmt>Fast Food Restaurant:Wendey&apos;s</cmt>
  <desc>Fast Food Restaurant:Wendey&apos;s</desc>
</wpt>
<wpt lat="38.063960100" lon="-78.936488500">
  <name>Fast Food Restaurant:Kentucky Fried Chicken</name>
  <cmt>Fast Food Restaurant:Kentucky Fried Chicken</cmt>
  <desc>Fast Food Restaurant:Kentucky Fried Chicken</desc>
</wpt>
<wpt lat="38.062415400" lon="-78.936321000">
  <name>Restaurant:Shoney&apos;s</name>
  <cmt>Restaurant:Shoney&apos;s</cmt>
  <desc>Restaurant:Shoney&apos;s</desc>
</wpt>
<wpt lat="38.064216900" lon="-78.936059300">
  <name>Cafe:Starbucks</name>
  <cmt>Cafe:Starbucks</cmt>
  <desc>Cafe:Starbucks</desc>
</wpt>
<wpt lat="38.061446200" lon="-78.934986400">
  <name>Restaurant:South River</name>
  <cmt>Restaurant:South River</cmt>
  <desc>Restaurant:South River</desc>
</wpt>
<wpt lat="38.064723700" lon="-78.934900600">
  <name>Restaurant:Ruby Tuesdays</name>
  <cmt>Restaurant:Ruby Tuesdays</cmt>
  <desc>Restaurant:Ruby Tuesdays</desc>
</wpt>
<wpt lat="38.061534000" lon="-78.933656000">
  <name>Restaurant:Outback Steakhouse</name>
  <cmt>Restaurant:Outback Steakhouse</cmt>
  <desc>Restaurant:Outback Steakhouse</desc>
</wpt>
<wpt lat="38.082644300" lon="-78.931760200">
  <name>Cafe:Big Apple Bagels</name>
  <cmt>Cafe:Big Apple Bagels</cmt>
  <desc>Cafe:Big Apple Bagels</desc>
</wpt>
<wpt lat="38.082306500" lon="-78.930369800">
  <name>Fast Food Restaurant:Taco Bell</name>
  <cmt>Fast Food Restaurant:Taco Bell</cmt>
  <desc>Fast Food Restaurant:Taco Bell</desc>
</wpt>
<wpt lat="38.068264800" lon="-78.929712900">
  <name>Restaurant:BW3 Wings</name>
  <cmt>Restaurant:BW3 Wings</cmt>
  <desc>Restaurant:BW3 Wings</desc>
</wpt>
<wpt lat="38.082076800" lon="-78.929485700">
  <name>Fast Food Restaurant:Willy&apos;s Ice Cream</name>
  <cmt>Fast Food Restaurant:Willy&apos;s Ice Cream</cmt>
  <desc>Fast Food Restaurant:Willy&apos;s Ice Cream</desc>
</wpt>
<wpt lat="36.736583900" lon="-78.919503200">
  <name>Fast Food Restaurant:Burger King</name>
  <cmt>Fast Food Restaurant:Burger King</cmt>
  <desc>Fast Food Restaurant:Burger King</desc>
</wpt>
<wpt lat="38.060178800" lon="-78.911920100">
  <name>Restaurant:Waynesboro Country Club</name>
  <cmt>Restaurant:Waynesboro Country Club</cmt>
  <desc>Restaurant:Waynesboro Country Club</desc>
</wpt>
<wpt lat="38.071955700" lon="-78.902466200">
  <name>Fast Food Restaurant:KFC</name>
  <cmt>Fast Food Restaurant:KFC</cmt>
  <desc>Fast Food Restaurant:KFC</desc>
</wpt>
<wpt lat="38.073226000" lon="-78.902174400">
  <name>Fast Food Restaurant:McDonald&apos;s</name>
  <cmt>Fast Food Restaurant:McDonald&apos;s</cmt>
  <desc>Fast Food Restaurant:McDonald&apos;s</desc>
</wpt>
<wpt lat="38.073050300" lon="-78.901565000">
  <name>Fast Food Restaurant:Burger King</name>
  <cmt>Fast Food Restaurant:Burger King</cmt>
  <desc>Fast Food Restaurant:Burger King</desc>
</wpt>
<wpt lat="38.072340800" lon="-78.901419100">
  <name>Fast Food Restaurant:Subway</name>
  <cmt>Fast Food Restaurant:Subway</cmt>
  <desc>Fast Food Restaurant:Subway</desc>
</wpt>
<wpt lat="38.072063800" lon="-78.900715300">
  <name>Fast Food Restaurant:A&amp;W and Long John Silver&apos;s</name>
  <cmt>Fast Food Restaurant:A&amp;W and Long John Silver&apos;s</cmt>
  <desc>Fast Food Restaurant:A&amp;W and Long John Silver&apos;s</desc>
</wpt>
<wpt lat="38.071881400" lon="-78.900200300">
  <name>Fast Food Restaurant:Wendy&apos;s</name>
  <cmt>Fast Food Restaurant:Wendy&apos;s</cmt>
  <desc>Fast Food Restaurant:Wendy&apos;s</desc>
</wpt>
<wpt lat="38.073077300" lon="-78.900114400">
  <name>Restaurant:Scotto&apos;s Italian Restaurant</name>
  <cmt>Restaurant:Scotto&apos;s Italian Restaurant</cmt>
  <desc>Restaurant:Scotto&apos;s Italian Restaurant</desc>
</wpt>
<wpt lat="38.424362200" lon="-78.872836500">
  <name>Restaurant:Great Wraps</name>
  <cmt>Restaurant:Great Wraps</cmt>
  <desc>Restaurant:Great Wraps</desc>
</wpt>
<wpt lat="37.353924800" lon="-78.828351900">
  <name>Restaurant:Granny Bee&apos;s</name>
  <cmt>Restaurant:Granny Bee&apos;s</cmt>
  <desc>Restaurant:Granny Bee&apos;s</desc>
</wpt>
<wpt lat="38.393914300" lon="-78.810899800">
  <name>Restaurant:The Chuckwagon</name>
  <cmt>Restaurant:The Chuckwagon</cmt>
  <desc>Restaurant:The Chuckwagon</desc>
</wpt>
<wpt lat="38.951916000" lon="-78.732260300">
  <name>Drinking water source</name>
  <cmt>Drinking water source</cmt>
  <desc>Drinking water source</desc>
</wpt>
<wpt lat="38.068822900" lon="-78.701883200">
  <name>Restaurant:La Cocina</name>
  <cmt>Restaurant:La Cocina</cmt>
  <desc>Restaurant:La Cocina</desc>
</wpt>
<wpt lat="38.070343300" lon="-78.700576400">
  <name>Fast Food Restaurant</name>
  <cmt>Fast Food Restaurant</cmt>
  <desc>Fast Food Restaurant</desc>
</wpt>
<wpt lat="38.069093200" lon="-78.699956300">
  <name>Cafe</name>
  <cmt>Cafe</cmt>
  <desc>Cafe</desc>
</wpt>
<wpt lat="38.069870300" lon="-78.698535800">
  <name>Restaurant</name>
  <cmt>Restaurant</cmt>
  <desc>Restaurant</desc>
</wpt>
<wpt lat="38.262288500" lon="-78.661214500">
  <name>Restaurant</name>
  <cmt>Restaurant</cmt>
  <desc>Restaurant</desc>
</wpt>
<wpt lat="38.057703500" lon="-78.598029300">
  <name>Restaurant:Duner&apos;s Restaurant</name>
  <cmt>Restaurant:Duner&apos;s Restaurant</cmt>
  <desc>Restaurant:Duner&apos;s Restaurant</desc>
</wpt>
<wpt lat="38.785521600" lon="-78.517458700">
  <name>Drinking water source</name>
  <cmt>Drinking water source</cmt>
  <desc>Drinking water source</desc>
</wpt>
<wpt lat="38.731335800" lon="-78.516969900">
  <name>Drinking water source</name>
  <cmt>Drinking water source</cmt>
  <desc>Drinking water source</desc>
</wpt>
<wpt lat="38.041350700" lon="-78.506555700">
  <name>Restaurant:The Villa</name>
  <cmt>Restaurant:The Villa</cmt>
  <desc>Restaurant:The Villa</desc>
</wpt>
<wpt lat="38.047291800" lon="-78.504523100">
  <name>Fast Food Restaurant:Taco Bell</name>
  <cmt>Fast Food Restaurant:Taco Bell</cmt>
  <desc>Fast Food Restaurant:Taco Bell</desc>
</wpt>
<wpt lat="38.048601400" lon="-78.504308500">
  <name>Fast Food Restaurant:McDonald&apos;s</name>
  <cmt>Fast Food Restaurant:McDonald&apos;s</cmt>
  <desc>Fast Food Restaurant:McDonald&apos;s</desc>
</wpt>
<wpt lat="38.049108300" lon="-78.503525300">
  <name>Fast Food Restaurant:Chipotle</name>
  <cmt>Fast Food Restaurant:Chipotle</cmt>
  <desc>Fast Food Restaurant:Chipotle</desc>
</wpt>
<wpt lat="38.052388000" lon="-78.502095000">
  <name>Cafe:Panera Bread #4427</name>
  <cmt>Cafe:Panera Bread #4427</cmt>
  <desc>Cafe:Panera Bread #4427</desc>
</wpt>
<wpt lat="38.052217400" lon="-78.501905300">
  <name>Restaurant:Five Guys</name>
  <cmt>Restaurant:Five Guys</cmt>
  <desc>Restaurant:Five Guys</desc>
</wpt>
<wpt lat="38.035521400" lon="-78.500928900">
  <name>Cafe:Starbucks</name>
  <cmt>Cafe:Starbucks</cmt>
  <desc>Cafe:Starbucks</desc>
</wpt>
<wpt lat="38.035659900" lon="-78.500929100">
  <name>Fast Food Restaurant:Bodo&apos;s</name>
  <cmt>Fast Food Restaurant:Bodo&apos;s</cmt>
  <desc>Fast Food Restaurant:Bodo&apos;s</desc>
</wpt>
<wpt lat="38.035653200" lon="-78.500806500">
  <name>Restaurant:Marco and Luca</name>
  <cmt>Restaurant:Marco and Luca</cmt>
  <desc>Restaurant:Marco and Luca</desc>
</wpt>
<wpt lat="38.035800300" lon="-78.500778700">
  <name>Restaurant:Take It Away</name>
  <cmt>Restaurant:Take It Away</cmt>
  <desc>Restaurant:Take It Away</desc>
</wpt>
<wpt lat="38.035259500" lon="-78.500682200">
  <name>Restaurant:Three</name>
  <cmt>Restaurant:Three</cmt>
  <desc>Restaurant:Three</desc>
</wpt>
<wpt lat="38.052094000" lon="-78.500561000">
  <name>Restaurant:Brixx Wood Fired Pizza</name>
  <cmt>Restaurant:Brixx Wood Fired Pizza</cmt>
  <desc>Restaurant:Brixx Wood Fired Pizza</desc>
</wpt>
<wpt lat="38.035605900" lon="-78.500489000">
  <name>Cafe:Martha&apos;s Cafe</name>
  <cmt>Cafe:Martha&apos;s Cafe</cmt>
  <desc>Cafe:Martha&apos;s Cafe</desc>
</wpt>
<wpt lat="38.034772600" lon="-78.500296100">
  <name>Restaurant:College_Inn</name>
  <cmt>Restaurant:College_Inn</cmt>
  <desc>Restaurant:College_Inn</desc>
</wpt>
<wpt lat="38.034659500" lon="-78.500210100">
  <name>Restaurant:Little John&apos;s</name>
  <cmt>Restaurant:Little John&apos;s</cmt>
  <desc>Restaurant:Little John&apos;s</desc>
</wpt>
<wpt lat="38.034406000" lon="-78.499995500">
  <name>Restaurant:Qdoba</name>
  <cmt>Restaurant:Qdoba</cmt>
  <desc>Restaurant:Qdoba</desc>
</wpt>
<wpt lat="38.034329900" lon="-78.499888200">
  <name>Restaurant:White Spot</name>
  <cmt>Restaurant:White Spot</cmt>
  <desc>Restaurant:White Spot</desc>
</wpt>
<wpt lat="38.034406000" lon="-78.499555600">
  <name>Restaurant:Sakura</name>
  <cmt>Restaurant:Sakura</cmt>
  <desc>Restaurant:Sakura</desc>
</wpt>
<wpt lat="38.034583400" lon="-78.499502000">
  <name>Restaurant:Basil</name>
  <cmt>Restaurant:Basil</cmt>
  <desc>Restaurant:Basil</desc>
</wpt>
<wpt lat="38.034084900" lon="-78.499384000">
  <name>Restaurant:Boylan Heights</name>
  <cmt>Restaurant:Boylan Heights</cmt>
  <desc>Restaurant:Boylan Heights</desc>
</wpt>
<wpt lat="38.034220100" lon="-78.499362500">
  <name>Restaurant:Christian&apos;s Pizza</name>
  <cmt>Restaurant:Christian&apos;s Pizza</cmt>
  <desc>Restaurant:Christian&apos;s Pizza</desc>
</wpt>
<wpt lat="38.033991900" lon="-78.499308900">
  <name>Restaurant:Lee&apos;s Grill</name>
  <cmt>Restaurant:Lee&apos;s Grill</cmt>
  <desc>Restaurant:Lee&apos;s Grill</desc>
</wpt>
<wpt lat="38.034465100" lon="-78.499223000">
  <name>Restaurant:Lemongrass</name>
  <cmt>Restaurant:Lemongrass</cmt>
  <desc>Restaurant:Lemongrass</desc>
</wpt>
<wpt lat="38.033915900" lon="-78.499169400">
  <name>Restaurant:Cafe Europa</name>
  <cmt>Restaurant:Cafe Europa</cmt>
  <desc>Restaurant:Cafe Europa</desc>
</wpt>
<wpt lat="38.033848300" lon="-78.499008500">
  <name>Restaurant:Baja Bean</name>
  <cmt>Restaurant:Baja Bean</cmt>
  <desc>Restaurant:Baja Bean</desc>
</wpt>
<wpt lat="38.033721500" lon="-78.498740200">
  <name>Restaurant:Mellow Mushroom</name>
  <cmt>Restaurant:Mellow Mushroom</cmt>
  <desc>Restaurant:Mellow Mushroom</desc>
</wpt>
<wpt lat="38.033975000" lon="-78.498718800">
  <name>Cafe:Fox Park Cafe</name>
  <cmt>Cafe:Fox Park Cafe</cmt>
  <desc>Cafe:Fox Park Cafe</desc>
</wpt>
<wpt lat="38.067064500" lon="-78.495209000">
  <name>Restaurant:Cocina del Sol</name>
  <cmt>Restaurant:Cocina del Sol</cmt>
  <desc>Restaurant:Cocina del Sol</desc>
</wpt>
<wpt lat="38.031503100" lon="-78.489597400">
  <name>Restaurant:Maya Restaurant</name>
  <cmt>Restaurant:Maya Restaurant</cmt>
  <desc>Restaurant:Maya Restaurant</desc>
</wpt>
<wpt lat="38.030037000" lon="-78.481456100">
  <name>Fast Food Restaurant:Crepes</name>
  <cmt>Fast Food Restaurant:Crepes</cmt>
  <desc>Fast Food Restaurant:Crepes</desc>
</wpt>
<wpt lat="38.080610000" lon="-78.474595000">
  <name>Fast Food Restaurant:Jimmy John&apos;s</name>
  <cmt>Fast Food Restaurant:Jimmy John&apos;s</cmt>
  <desc>Fast Food Restaurant:Jimmy John&apos;s</desc>
</wpt>
<wpt lat="38.022956200" lon="-78.470252700">
  <name>Restaurant:Aqui Es Mexico</name>
  <cmt>Restaurant:Aqui Es Mexico</cmt>
  <desc>Restaurant:Aqui Es Mexico</desc>
</wpt>
<wpt lat="38.023371000" lon="-78.470178000">
  <name>Restaurant:BeerRun</name>
  <cmt>Restaurant:BeerRun</cmt>
  <desc>Restaurant:BeerRun</desc>
</wpt>
<wpt lat="38.665379000" lon="-78.458315300">
  <name>Cafe:Uncle Buck&apos;s</name>
  <cmt>Cafe:Uncle Buck&apos;s</cmt>
  <desc>Cafe:Uncle Buck&apos;s</desc>
</wpt>
<wpt lat="38.128321700" lon="-78.443401000">
  <name>Fast Food Restaurant:Five Guys</name>
  <cmt>Fast Food Restaurant:Five Guys</cmt>
  <desc>Fast Food Restaurant:Five Guys</desc>
</wpt>
<wpt lat="38.129036500" lon="-78.442629100">
  <name>Restaurant:Sakura</name>
  <cmt>Restaurant:Sakura</cmt>
  <desc>Restaurant:Sakura</desc>
</wpt>
<wpt lat="38.129250100" lon="-78.442424700">
  <name>Restaurant:Bonefish</name>
  <cmt>Restaurant:Bonefish</cmt>
  <desc>Restaurant:Bonefish</desc>
</wpt>
<wpt lat="38.127339700" lon="-78.441519100">
  <name>Restaurant:T.J.Fridays</name>
  <cmt>Restaurant:T.J.Fridays</cmt>
  <desc>Restaurant:T.J.Fridays</desc>
</wpt>
<wpt lat="38.127953000" lon="-78.438332000">
  <name>Restaurant:Timberwood Grill</name>
  <cmt>Restaurant:Timberwood Grill</cmt>
  <desc>Restaurant:Timberwood Grill</desc>
</wpt>
<wpt lat="38.517460200" lon="-78.438187200">
  <name>Restaurant:Big Meadows Wayside</name>
  <cmt>Restaurant:Big Meadows Wayside</cmt>
  <desc>Restaurant:Big Meadows Wayside</desc>
</wpt>
<wpt lat="36.496093600" lon="-78.419559200">
  <name>Restaurant:Olde Place</name>
  <cmt>Restaurant:Olde Place</cmt>
  <desc>Restaurant:Olde Place</desc>
</wpt>
<wpt lat="37.276852200" lon="-78.399663900">
  <name>Restaurant:Ruby Tuesday</name>
  <cmt>Restaurant:Ruby Tuesday</cmt>
  <desc>Restaurant:Ruby Tuesday</desc>
</wpt>
<wpt lat="37.276715600" lon="-78.398483700">
  <name>Restaurant:Applebees</name>
  <cmt>Restaurant:Applebees</cmt>
  <desc>Restaurant:Applebees</desc>
</wpt>
<wpt lat="37.305089400" lon="-78.391646800">
  <name>Restaurant:Charlies Resturant</name>
  <cmt>Restaurant:Charlies Resturant</cmt>
  <desc>Restaurant:Charlies Resturant</desc>
</wpt>
<wpt lat="37.305891600" lon="-78.389694200">
  <name>Restaurant:Riverside Cafe</name>
  <cmt>Restaurant:Riverside Cafe</cmt>
  <desc>Restaurant:Riverside Cafe</desc>
</wpt>
<wpt lat="38.592692800" lon="-78.380429200">
  <name>Restaurant</name>
  <cmt>Restaurant</cmt>
  <desc>Restaurant</desc>
</wpt>
<wpt lat="37.900120600" lon="-78.313580300">
  <name>Cafe:Dogwood Cafe</name>
  <cmt>Cafe:Dogwood Cafe</cmt>
  <desc>Cafe:Dogwood Cafe</desc>
</wpt>
<wpt lat="38.738684900" lon="-78.309006000">
  <name>Fast Food Restaurant</name>
  <cmt>Fast Food Restaurant</cmt>
  <desc>Fast Food Restaurant</desc>
</wpt>
<wpt lat="37.973708900" lon="-78.215818300">
  <name>Fast Food Restaurant:McDonald&apos;s</name>
  <cmt>Fast Food Restaurant:McDonald&apos;s</cmt>
  <desc>Fast Food Restaurant:McDonald&apos;s</desc>
</wpt>
<wpt lat="38.935017700" lon="-78.195668200">
  <name>Restaurant:Pizza Hut</name>
  <cmt>Restaurant:Pizza Hut</cmt>
  <desc>Restaurant:Pizza Hut</desc>
</wpt>
<wpt lat="38.927139400" lon="-78.194372300">
  <name>Fast Food Restaurant:Taco Bell</name>
  <cmt>Fast Food Restaurant:Taco Bell</cmt>
  <desc>Fast Food Restaurant:Taco Bell</desc>
</wpt>
<wpt lat="38.929743200" lon="-78.193127600">
  <name>Fast Food Restaurant:Wendy&apos;s</name>
  <cmt>Fast Food Restaurant:Wendy&apos;s</cmt>
  <desc>Fast Food Restaurant:Wendy&apos;s</desc>
</wpt>
<wpt lat="38.965395600" lon="-78.192415300">
  <name>Restaurant:Vocelli&apos;s Pizza</name>
  <cmt>Restaurant:Vocelli&apos;s Pizza</cmt>
  <desc>Restaurant:Vocelli&apos;s Pizza</desc>
</wpt>
<wpt lat="38.965529100" lon="-78.192329400">
  <name>Restaurant:Ledo Pizza</name>
  <cmt>Restaurant:Ledo Pizza</cmt>
  <desc>Restaurant:Ledo Pizza</desc>
</wpt>
<wpt lat="38.965509100" lon="-78.190973300">
  <name>Restaurant:TGI Fridays</name>
  <cmt>Restaurant:TGI Fridays</cmt>
  <desc>Restaurant:TGI Fridays</desc>
</wpt>
<wpt lat="38.963020900" lon="-78.190664400">
  <name>Restaurant:Cracker Barrel</name>
  <cmt>Restaurant:Cracker Barrel</cmt>
  <desc>Restaurant:Cracker Barrel</desc>
</wpt>
<wpt lat="38.963514800" lon="-78.190381100">
  <name>Restaurant:Applebee&apos;s</name>
  <cmt>Restaurant:Applebee&apos;s</cmt>
  <desc>Restaurant:Applebee&apos;s</desc>
</wpt>
<wpt lat="38.966391100" lon="-78.188999300">
  <name>Fast Food Restaurant</name>
  <cmt>Fast Food Restaurant</cmt>
  <desc>Fast Food Restaurant</desc>
</wpt>
<wpt lat="38.911860100" lon="-78.188346900">
  <name>Fast Food Restaurant:McDonald&apos;s</name>
  <cmt>Fast Food Restaurant:McDonald&apos;s</cmt>
  <desc>Fast Food Restaurant:McDonald&apos;s</desc>
</wpt>
<wpt lat="38.964977400" lon="-78.187833800">
  <name>Fast Food Restaurant:Checker&apos;s</name>
  <cmt>Fast Food Restaurant:Checker&apos;s</cmt>
  <desc>Fast Food Restaurant:Checker&apos;s</desc>
</wpt>
<wpt lat="38.911793400" lon="-78.187806100">
  <name>Fast Food Restaurant:Burger King</name>
  <cmt>Fast Food Restaurant:Burger King</cmt>
  <desc>Fast Food Restaurant:Burger King</desc>
</wpt>
<wpt lat="38.910277300" lon="-78.184244200">
  <name>Fast Food Restaurant:KFC</name>
  <cmt>Fast Food Restaurant:KFC</cmt>
  <desc>Fast Food Restaurant:KFC</desc>
</wpt>
<wpt lat="38.987649100" lon="-78.181326800">
  <name>Restaurant:Houlihan&apos;s</name>
  <cmt>Restaurant:Houlihan&apos;s</cmt>
  <desc>Restaurant:Houlihan&apos;s</desc>
</wpt>
<wpt lat="38.928303400" lon="-78.103788300">
  <name>Restaurant:Mess Hall</name>
  <cmt>Restaurant:Mess Hall</cmt>
  <desc>Restaurant:Mess Hall</desc>
</wpt>
<wpt lat="38.913656700" lon="-78.101340300">
  <name>Restaurant:Apple House</name>
  <cmt>Restaurant:Apple House</cmt>
  <desc>Restaurant:Apple House</desc>
</wpt>
<wpt lat="39.463117300" lon="-77.988577400">
  <name>Fast Food Restaurant:Burger King</name>
  <cmt>Fast Food Restaurant:Burger King</cmt>
  <desc>Fast Food Restaurant:Burger King</desc>
</wpt>
<wpt lat="39.463531500" lon="-77.988420700">
  <name>Restaurant</name>
  <cmt>Restaurant</cmt>
  <desc>Restaurant</desc>
</wpt>
<wpt lat="36.533475800" lon="-77.937803200">
  <name>Restaurant:Andy&apos;s Cheesestake</name>
  <cmt>Restaurant:Andy&apos;s Cheesestake</cmt>
  <desc>Restaurant:Andy&apos;s Cheesestake</desc>
</wpt>
<wpt lat="39.120132000" lon="-77.855216000">
  <name>Pub:Horseshoe Curve Rest.</name>
  <cmt>Pub:Horseshoe Curve Rest.</cmt>
  <desc>Pub:Horseshoe Curve Rest.</desc>
</wpt>
<wpt lat="39.435861400" lon="-77.821467400">
  <name>Fast Food Restaurant:Kings New York Pizza &amp; Subs</name>
  <cmt>Fast Food Restaurant:Kings New York Pizza &amp; Subs</cmt>
  <desc>Fast Food Restaurant:Kings New York Pizza &amp; Subs</desc>
</wpt>
<wpt lat="39.435844900" lon="-77.821344100">
  <name>Restaurant:Awok</name>
  <cmt>Restaurant:Awok</cmt>
  <desc>Restaurant:Awok</desc>
</wpt>
<wpt lat="39.434904200" lon="-77.820754800">
  <name>Fast Food Restaurant:McDonald&apos;s</name>
  <cmt>Fast Food Restaurant:McDonald&apos;s</cmt>
  <desc>Fast Food Restaurant:McDonald&apos;s</desc>
</wpt>
<wpt lat="38.717128100" lon="-77.807345100">
  <name>Restaurant:Carousel Ice cream</name>
  <cmt>Restaurant:Carousel Ice cream</cmt>
  <desc>Restaurant:Carousel Ice cream</desc>
</wpt>
<wpt lat="39.430928000" lon="-77.806785000">
  <name>Restaurant:Stone Soup Bistro</name>
  <cmt>Restaurant:Stone Soup Bistro</cmt>
  <desc>Restaurant:Stone Soup Bistro</desc>
</wpt>
<wpt lat="39.430460000" lon="-77.805476000">
  <name>Restaurant:Betty&apos;s Restaurant</name>
  <cmt>Restaurant:Betty&apos;s Restaurant</cmt>
  <desc>Restaurant:Betty&apos;s Restaurant</desc>
</wpt>
<wpt lat="39.430286000" lon="-77.804126000">
  <name>Restaurant:Yellow Brick Bank</name>
  <cmt>Restaurant:Yellow Brick Bank</cmt>
  <desc>Restaurant:Yellow Brick Bank</desc>
</wpt>
<wpt lat="38.729235000" lon="-77.798976700">
  <name>Restaurant:Panera Bread</name>
  <cmt>Restaurant:Panera Bread</cmt>
  <desc>Restaurant:Panera Bread</desc>
</wpt>
<wpt lat="38.728752900" lon="-77.796041200">
  <name>Cafe:Starbucks</name>
  <cmt>Cafe:Starbucks</cmt>
  <desc>Cafe:Starbucks</desc>
</wpt>
<wpt lat="38.711443600" lon="-77.795122100">
  <name>Restaurant:Claire&apos;s at the Depot Restaurant</name>
  <cmt>Restaurant:Claire&apos;s at the Depot Restaurant</cmt>
  <desc>Restaurant:Claire&apos;s at the Depot Restaurant</desc>
</wpt>
<wpt lat="38.713134700" lon="-77.794430100">
  <name>Restaurant:Black Bear Bistro</name>
  <cmt>Restaurant:Black Bear Bistro</cmt>
  <desc>Restaurant:Black Bear Bistro</desc>
</wpt>
<wpt lat="38.713049500" lon="-77.794247400">
  <name>Pub:Molly&apos;s Irish Pub</name>
  <cmt>Pub:Molly&apos;s Irish Pub</cmt>
  <desc>Pub:Molly&apos;s Irish Pub</desc>
</wpt>
<wpt lat="38.712875100" lon="-77.793405500">
  <name>Restaurant:Main Street Grill</name>
  <cmt>Restaurant:Main Street Grill</cmt>
  <desc>Restaurant:Main Street Grill</desc>
</wpt>
<wpt lat="38.727265900" lon="-77.792507100">
  <name>Restaurant:Ruby Tuesday</name>
  <cmt>Restaurant:Ruby Tuesday</cmt>
  <desc>Restaurant:Ruby Tuesday</desc>
</wpt>
<wpt lat="38.733051500" lon="-77.771725400">
  <name>Restaurant:IHOP</name>
  <cmt>Restaurant:IHOP</cmt>
  <desc>Restaurant:IHOP</desc>
</wpt>
<wpt lat="38.733346100" lon="-77.771339200">
  <name>Cafe:StarBucks</name>
  <cmt>Cafe:StarBucks</cmt>
  <desc>Cafe:StarBucks</desc>
</wpt>
<wpt lat="38.733721000" lon="-77.770952900">
  <name>Restaurant:Outback Steak House</name>
  <cmt>Restaurant:Outback Steak House</cmt>
  <desc>Restaurant:Outback Steak House</desc>
</wpt>
<wpt lat="39.132994000" lon="-77.768454800">
  <name>Restaurant:Tammy&apos;s Diner</name>
  <cmt>Restaurant:Tammy&apos;s Diner</cmt>
  <desc>Restaurant:Tammy&apos;s Diner</desc>
</wpt>
<wpt lat="39.136930300" lon="-77.724273500">
  <name>Restaurant:Anthony&apos;s</name>
  <cmt>Restaurant:Anthony&apos;s</cmt>
  <desc>Restaurant:Anthony&apos;s</desc>
</wpt>
<wpt lat="39.138374100" lon="-77.715754800">
  <name>Restaurant:Magnolias</name>
  <cmt>Restaurant:Magnolias</cmt>
  <desc>Restaurant:Magnolias</desc>
</wpt>
<wpt lat="38.767011800" lon="-77.712175400">
  <name>Restaurant:Spitony&apos;s Pizza</name>
  <cmt>Restaurant:Spitony&apos;s Pizza</cmt>
  <desc>Restaurant:Spitony&apos;s Pizza</desc>
</wpt>
<wpt lat="39.137833200" lon="-77.705814500">
  <name>Restaurant:Pen&apos;s Oriental</name>
  <cmt>Restaurant:Pen&apos;s Oriental</cmt>
  <desc>Restaurant:Pen&apos;s Oriental</desc>
</wpt>
<wpt lat="39.138657000" lon="-77.705782300">
  <name>Restaurant:Mario&apos;s</name>
  <cmt>Restaurant:Mario&apos;s</cmt>
  <desc>Restaurant:Mario&apos;s</desc>
</wpt>
<wpt lat="39.137196600" lon="-77.705543900">
  <name>Fast Food Restaurant:McDonald&apos;s</name>
  <cmt>Fast Food Restaurant:McDonald&apos;s</cmt>
  <desc>Fast Food Restaurant:McDonald&apos;s</desc>
</wpt>
<wpt lat="39.136772200" lon="-77.702622700">
  <name>Restaurant:Al&apos;s Pizza and Subs</name>
  <cmt>Restaurant:Al&apos;s Pizza and Subs</cmt>
  <desc>Restaurant:Al&apos;s Pizza and Subs</desc>
</wpt>
<wpt lat="39.135091200" lon="-77.698570900">
  <name>Restaurant:Main Street Wings</name>
  <cmt>Restaurant:Main Street Wings</cmt>
  <desc>Restaurant:Main Street Wings</desc>
</wpt>
<wpt lat="37.403607700" lon="-77.686413700">
  <name>Restaurant:Five Guys</name>
  <cmt>Restaurant:Five Guys</cmt>
  <desc>Restaurant:Five Guys</desc>
</wpt>
<wpt lat="38.831580400" lon="-77.671231600">
  <name>Drinking water source</name>
  <cmt>Drinking water source</cmt>
  <desc>Drinking water source</desc>
</wpt>
<wpt lat="38.830695600" lon="-77.670961500">
  <name>Drinking water source</name>
  <cmt>Drinking water source</cmt>
  <desc>Drinking water source</desc>
</wpt>
<wpt lat="38.829646100" lon="-77.669752700">
  <name>Drinking water source</name>
  <cmt>Drinking water source</cmt>
  <desc>Drinking water source</desc>
</wpt>
<wpt lat="38.832025700" lon="-77.668792900">
  <name>Drinking water source</name>
  <cmt>Drinking water source</cmt>
  <desc>Drinking water source</desc>
</wpt>
<wpt lat="38.830963500" lon="-77.666963800">
  <name>Drinking water source</name>
  <cmt>Drinking water source</cmt>
  <desc>Drinking water source</desc>
</wpt>
<wpt lat="38.783751200" lon="-77.661962100">
  <name>Restaurant:Blue Ridge Seafood</name>
  <cmt>Restaurant:Blue Ridge Seafood</cmt>
  <desc>Restaurant:Blue Ridge Seafood</desc>
</wpt>
<wpt lat="38.783207200" lon="-77.647239800">
  <name>Cafe:club house</name>
  <cmt>Cafe:club house</cmt>
  <desc>Cafe:club house</desc>
</wpt>
<wpt lat="38.879232300" lon="-77.637016600">
  <name>Cafe:club house</name>
  <cmt>Cafe:club house</cmt>
  <desc>Cafe:club house</desc>
</wpt>
<wpt lat="37.621131500" lon="-77.624007600">
  <name>Fast Food Restaurant:Wendy&apos;s</name>
  <cmt>Fast Food Restaurant:Wendy&apos;s</cmt>
  <desc>Fast Food Restaurant:Wendy&apos;s</desc>
</wpt>
<wpt lat="37.599525800" lon="-77.623343800">
  <name>Restaurant:Alexander&apos;s Barbeque</name>
  <cmt>Restaurant:Alexander&apos;s Barbeque</cmt>
  <desc>Restaurant:Alexander&apos;s Barbeque</desc>
</wpt>
<wpt lat="37.598080700" lon="-77.622590300">
  <name>Restaurant:Arby&apos;s</name>
  <cmt>Restaurant:Arby&apos;s</cmt>
  <desc>Restaurant:Arby&apos;s</desc>
</wpt>
<wpt lat="37.598025400" lon="-77.621319000">
  <name>Fast Food Restaurant:McDonald&apos;s</name>
  <cmt>Fast Food Restaurant:McDonald&apos;s</cmt>
  <desc>Fast Food Restaurant:McDonald&apos;s</desc>
</wpt>
<wpt lat="37.597999900" lon="-77.620691300">
  <name>Fast Food Restaurant:Burger King</name>
  <cmt>Fast Food Restaurant:Burger King</cmt>
  <desc>Fast Food Restaurant:Burger King</desc>
</wpt>
<wpt lat="37.655752300" lon="-77.620110000">
  <name>Restaurant:Maggiano&apos;s Little Italy</name>
  <cmt>Restaurant:Maggiano&apos;s Little Italy</cmt>
  <desc>Restaurant:Maggiano&apos;s Little Italy</desc>
</wpt>
<wpt lat="37.652943100" lon="-77.616414600">
  <name>Restaurant:Chili&apos;s</name>
  <cmt>Restaurant:Chili&apos;s</cmt>
  <desc>Restaurant:Chili&apos;s</desc>
</wpt>
<wpt lat="38.794874100" lon="-77.614909500">
  <name>Fast Food Restaurant:McDonald&apos;s</name>
  <cmt>Fast Food Restaurant:McDonald&apos;s</cmt>
  <desc>Fast Food Restaurant:McDonald&apos;s</desc>
</wpt>
<wpt lat="38.781309400" lon="-77.614565700">
  <name>Cafe:club house</name>
  <cmt>Cafe:club house</cmt>
  <desc>Cafe:club house</desc>
</wpt>
<wpt lat="37.653979400" lon="-77.610556600">
  <name>Fast Food Restaurant:Captain D&apos;s</name>
  <cmt>Fast Food Restaurant:Captain D&apos;s</cmt>
  <desc>Fast Food Restaurant:Captain D&apos;s</desc>
</wpt>
<wpt lat="38.792465800" lon="-77.610435600">
  <name>Fast Food Restaurant:Taco Bell</name>
  <cmt>Fast Food Restaurant:Taco Bell</cmt>
  <desc>Fast Food Restaurant:Taco Bell</desc>
</wpt>
<wpt lat="38.791683900" lon="-77.610258500">
  <name>Fast Food Restaurant:Burger King</name>
  <cmt>Fast Food Restaurant:Burger King</cmt>
  <desc>Fast Food Restaurant:Burger King</desc>
</wpt>
<wpt lat="38.795398000" lon="-77.610139000">
  <name>Restaurant:Ruby Tuesdays</name>
  <cmt>Restaurant:Ruby Tuesdays</cmt>
  <desc>Restaurant:Ruby Tuesdays</desc>
</wpt>
<wpt lat="38.796195900" lon="-77.609530400">
  <name>Fast Food Restaurant:Qdoba</name>
  <cmt>Fast Food Restaurant:Qdoba</cmt>
  <desc>Fast Food Restaurant:Qdoba</desc>
</wpt>
<wpt lat="38.795815600" lon="-77.609219400">
  <name>Cafe:Starbucks</name>
  <cmt>Cafe:Starbucks</cmt>
  <desc>Cafe:Starbucks</desc>
</wpt>
<wpt lat="38.796058000" lon="-77.608747200">
  <name>Fast Food Restaurant:Panera</name>
  <cmt>Fast Food Restaurant:Panera</cmt>
  <desc>Fast Food Restaurant:Panera</desc>
</wpt>
<wpt lat="38.796393000" lon="-77.607923000">
  <name>Fast Food Restaurant:Five Guys</name>
  <cmt>Fast Food Restaurant:Five Guys</cmt>
  <desc>Fast Food Restaurant:Five Guys</desc>
</wpt>
<wpt lat="37.650513600" lon="-77.604624600">
  <name>Fast Food Restaurant:McDonald&apos;s</name>
  <cmt>Fast Food Restaurant:McDonald&apos;s</cmt>
  <desc>Fast Food Restaurant:McDonald&apos;s</desc>
</wpt>
<wpt lat="37.649732100" lon="-77.600526200">
  <name>Fast Food Restaurant:KFC/Long John Silver&apos;s</name>
  <cmt>Fast Food Restaurant:KFC/Long John Silver&apos;s</cmt>
  <desc>Fast Food Restaurant:KFC/Long John Silver&apos;s</desc>
</wpt>
<wpt lat="38.200466800" lon="-77.588592300">
  <name>Restaurant:Courthouse Cafe</name>
  <cmt>Restaurant:Courthouse Cafe</cmt>
  <desc>Restaurant:Courthouse Cafe</desc>
</wpt>
<wpt lat="36.541097900" lon="-77.579942000">
  <name>Service Station</name>
  <cmt>Service Station</cmt>
  <desc>Service Station</desc>
</wpt>
<wpt lat="38.749346800" lon="-77.573167000">
  <name>Fast Food Restaurant:Arby&apos;s</name>
  <cmt>Fast Food Restaurant:Arby&apos;s</cmt>
  <desc>Fast Food Restaurant:Arby&apos;s</desc>
</wpt>
<wpt lat="37.645463500" lon="-77.568713600">
  <name>Restaurant:Golden Corral</name>
  <cmt>Restaurant:Golden Corral</cmt>
  <desc>Restaurant:Golden Corral</desc>
</wpt>
<wpt lat="39.112768200" lon="-77.562972400">
  <name>Restaurant:Los Tios</name>
  <cmt>Restaurant:Los Tios</cmt>
  <desc>Restaurant:Los Tios</desc>
</wpt>
<wpt lat="39.112876400" lon="-77.562838300">
  <name>Restaurant:Fireworks Pizza</name>
  <cmt>Restaurant:Fireworks Pizza</cmt>
  <desc>Restaurant:Fireworks Pizza</desc>
</wpt>
<wpt lat="39.112625500" lon="-77.562338700">
  <name>Beer Garden:Doener Bistro</name>
  <cmt>Beer Garden:Doener Bistro</cmt>
  <desc>Beer Garden:Doener Bistro</desc>
</wpt>
<wpt lat="39.113466300" lon="-77.561371700">
  <name>Restaurant:Thai Pan Restaurant</name>
  <cmt>Restaurant:Thai Pan Restaurant</cmt>
  <desc>Restaurant:Thai Pan Restaurant</desc>
</wpt>
<wpt lat="39.160959200" lon="-77.560463900">
  <name>Cafe:club house</name>
  <cmt>Cafe:club house</cmt>
  <desc>Cafe:club house</desc>
</wpt>
<wpt lat="37.639894500" lon="-77.557131900">
  <name>Restaurant:Pizza Hut</name>
  <cmt>Restaurant:Pizza Hut</cmt>
  <desc>Restaurant:Pizza Hut</desc>
</wpt>
<wpt lat="37.639622600" lon="-77.556498800">
  <name>Fast Food Restaurant:Qdoba</name>
  <cmt>Fast Food Restaurant:Qdoba</cmt>
  <desc>Fast Food Restaurant:Qdoba</desc>
</wpt>
<wpt lat="39.111178900" lon="-77.555902100">
  <name>Restaurant:Pizza Hut</name>
  <cmt>Restaurant:Pizza Hut</cmt>
  <desc>Restaurant:Pizza Hut</desc>
</wpt>
<wpt lat="39.110512900" lon="-77.554374300">
  <name>Fast Food Restaurant:Wendy&apos;s</name>
  <cmt>Fast Food Restaurant:Wendy&apos;s</cmt>
  <desc>Fast Food Restaurant:Wendy&apos;s</desc>
</wpt>
<wpt lat="39.112570700" lon="-77.554331400">
  <name>Restaurant:Vintage 50</name>
  <cmt>Restaurant:Vintage 50</cmt>
  <desc>Restaurant:Vintage 50</desc>
</wpt>
<wpt lat="39.108821300" lon="-77.551164200">
  <name>Fast Food Restaurant:Roy Rogers</name>
  <cmt>Fast Food Restaurant:Roy Rogers</cmt>
  <desc>Fast Food Restaurant:Roy Rogers</desc>
</wpt>
<wpt lat="37.635541100" lon="-77.548830800">
  <name>Fast Food Restaurant:Burger King</name>
  <cmt>Fast Food Restaurant:Burger King</cmt>
  <desc>Fast Food Restaurant:Burger King</desc>
</wpt>
<wpt lat="37.635853700" lon="-77.546985400">
  <name>Fast Food Restaurant:KFC</name>
  <cmt>Fast Food Restaurant:KFC</cmt>
  <desc>Fast Food Restaurant:KFC</desc>
</wpt>
<wpt lat="37.636385700" lon="-77.544675700">
  <name>Fast Food Restaurant:Quiznos</name>
  <cmt>Fast Food Restaurant:Quiznos</cmt>
  <desc>Fast Food Restaurant:Quiznos</desc>
</wpt>
<wpt lat="39.115275000" lon="-77.539485900">
  <name>Restaurant:Buffalo Wings &amp; Beer</name>
  <cmt>Restaurant:Buffalo Wings &amp; Beer</cmt>
  <desc>Restaurant:Buffalo Wings &amp; Beer</desc>
</wpt>
<wpt lat="39.114402100" lon="-77.538839000">
  <name>Fast Food Restaurant:Taco Bell/Pizza Hut</name>
  <cmt>Fast Food Restaurant:Taco Bell/Pizza Hut</cmt>
  <desc>Fast Food Restaurant:Taco Bell/Pizza Hut</desc>
</wpt>
<wpt lat="39.113104900" lon="-77.538789800">
  <name>Fast Food Restaurant:McDonald&apos;s</name>
  <cmt>Fast Food Restaurant:McDonald&apos;s</cmt>
  <desc>Fast Food Restaurant:McDonald&apos;s</desc>
</wpt>
<wpt lat="39.115021500" lon="-77.538770300">
  <name>Restaurant:IHOP</name>
  <cmt>Restaurant:IHOP</cmt>
  <desc>Restaurant:IHOP</desc>
</wpt>
<wpt lat="39.113216700" lon="-77.536538700">
  <name>Restaurant:Ruby Tuesday</name>
  <cmt>Restaurant:Ruby Tuesday</cmt>
  <desc>Restaurant:Ruby Tuesday</desc>
</wpt>
<wpt lat="39.112857100" lon="-77.535131100">
  <name>Cafe:Starbucks</name>
  <cmt>Cafe:Starbucks</cmt>
  <desc>Cafe:Starbucks</desc>
</wpt>
<wpt lat="38.325730200" lon="-77.534356400">
  <name>Cafe:club house</name>
  <cmt>Cafe:club house</cmt>
  <desc>Cafe:club house</desc>
</wpt>
<wpt lat="39.108615100" lon="-77.533769100">
  <name>Restaurant:Pizza Hut</name>
  <cmt>Restaurant:Pizza Hut</cmt>
  <desc>Restaurant:Pizza Hut</desc>
</wpt>
<wpt lat="38.705639600" lon="-77.530885200">
  <name>Cafe:club house</name>
  <cmt>Cafe:club house</cmt>
  <desc>Cafe:club house</desc>
</wpt>
<wpt lat="39.098997000" lon="-77.527784000">
  <name>Fast Food Restaurant:Arby&apos;s</name>
  <cmt>Fast Food Restaurant:Arby&apos;s</cmt>
  <desc>Fast Food Restaurant:Arby&apos;s</desc>
</wpt>
<wpt lat="39.099383400" lon="-77.527440600">
  <name>Restaurant:Green Turtle</name>
  <cmt>Restaurant:Green Turtle</cmt>
  <desc>Restaurant:Green Turtle</desc>
</wpt>
<wpt lat="38.245382600" lon="-77.526417900">
  <name>Fast Food Restaurant:Burger King</name>
  <cmt>Fast Food Restaurant:Burger King</cmt>
  <desc>Fast Food Restaurant:Burger King</desc>
</wpt>
<wpt lat="37.657389500" lon="-77.526109400">
  <name>Restaurant:Tokyo Sushi Japanese Restaurant</name>
  <cmt>Restaurant:Tokyo Sushi Japanese Restaurant</cmt>
  <desc>Restaurant:Tokyo Sushi Japanese Restaurant</desc>
</wpt>
<wpt lat="39.099383400" lon="-77.526093100">
  <name>Restaurant:Moe&apos;s Southwest Grill</name>
  <cmt>Restaurant:Moe&apos;s Southwest Grill</cmt>
  <desc>Restaurant:Moe&apos;s Southwest Grill</desc>
</wpt>
<wpt lat="38.245635900" lon="-77.525662700">
  <name>Fast Food Restaurant:McDonald&apos;s</name>
  <cmt>Fast Food Restaurant:McDonald&apos;s</cmt>
  <desc>Fast Food Restaurant:McDonald&apos;s</desc>
</wpt>
<wpt lat="38.358784000" lon="-77.522673100">
  <name>Fast Food Restaurant:Five Guys</name>
  <cmt>Fast Food Restaurant:Five Guys</cmt>
  <desc>Fast Food Restaurant:Five Guys</desc>
</wpt>
<wpt lat="38.926490300" lon="-77.522172500">
  <name>Restaurant:Grand Thai</name>
  <cmt>Restaurant:Grand Thai</cmt>
  <desc>Restaurant:Grand Thai</desc>
</wpt>
<wpt lat="38.926406900" lon="-77.522145600">
  <name>Restaurant:Rangoli</name>
  <cmt>Restaurant:Rangoli</cmt>
  <desc>Restaurant:Rangoli</desc>
</wpt>
<wpt lat="38.926244100" lon="-77.522108100">
  <name>Restaurant:Moe&apos;s Southwest Grill</name>
  <cmt>Restaurant:Moe&apos;s Southwest Grill</cmt>
  <desc>Restaurant:Moe&apos;s Southwest Grill</desc>
</wpt>
<wpt lat="38.360080400" lon="-77.520120100">
  <name>Fast Food Restaurant:Subway</name>
  <cmt>Fast Food Restaurant:Subway</cmt>
  <desc>Fast Food Restaurant:Subway</desc>
</wpt>
<wpt lat="38.804648200" lon="-77.519779900">
  <name>Restaurant:Cracker Barrel</name>
  <cmt>Restaurant:Cracker Barrel</cmt>
  <desc>Restaurant:Cracker Barrel</desc>
</wpt>
<wpt lat="38.925198700" lon="-77.519122800">
  <name>Restaurant:Ruby Tuesday</name>
  <cmt>Restaurant:Ruby Tuesday</cmt>
  <desc>Restaurant:Ruby Tuesday</desc>
</wpt>
<wpt lat="39.018705800" lon="-77.518944000">
  <name>Pub:Broadlands Pub</name>
  <cmt>Pub:Broadlands Pub</cmt>
  <desc>Pub:Broadlands Pub</desc>
</wpt>
<wpt lat="39.018565800" lon="-77.518866700">
  <name>Restaurant:Cafe Opera</name>
  <cmt>Restaurant:Cafe Opera</cmt>
  <desc>Restaurant:Cafe Opera</desc>
</wpt>
<wpt lat="39.017872300" lon="-77.518291700">
  <name>Fast Food Restaurant:Dunkin Donuts</name>
  <cmt>Fast Food Restaurant:Dunkin Donuts</cmt>
  <desc>Fast Food Restaurant:Dunkin Donuts</desc>
</wpt>
<wpt lat="38.359509000" lon="-77.517690300">
  <name>Restaurant:Chick-fil-A</name>
  <cmt>Restaurant:Chick-fil-A</cmt>
  <desc>Restaurant:Chick-fil-A</desc>
</wpt>
<wpt lat="38.245652100" lon="-77.516890700">
  <name>Restaurant:China Wok</name>
  <cmt>Restaurant:China Wok</cmt>
  <desc>Restaurant:China Wok</desc>
</wpt>
<wpt lat="38.245660100" lon="-77.516729500">
  <name>Restaurant:Don Alberto&apos;s Peruvian Chicken</name>
  <cmt>Restaurant:Don Alberto&apos;s Peruvian Chicken</cmt>
  <desc>Restaurant:Don Alberto&apos;s Peruvian Chicken</desc>
</wpt>
<wpt lat="38.792237600" lon="-77.515270800">
  <name>Fast Food Restaurant</name>
  <cmt>Fast Food Restaurant</cmt>
  <desc>Fast Food Restaurant</desc>
</wpt>
<wpt lat="38.246737300" lon="-77.513399900">
  <name>Fast Food Restaurant:Dunkin Donuts/Baskin Robins</name>
  <cmt>Fast Food Restaurant:Dunkin Donuts/Baskin Robins</cmt>
  <desc>Fast Food Restaurant:Dunkin Donuts/Baskin Robins</desc>
</wpt>
<wpt lat="39.085384200" lon="-77.513089700">
  <name>Cafe:club house</name>
  <cmt>Cafe:club house</cmt>
  <desc>Cafe:club house</desc>
</wpt>
<wpt lat="37.519522400" lon="-77.512815600">
  <name>Restaurant:Ho Wah Chinese Restaurant</name>
  <cmt>Restaurant:Ho Wah Chinese Restaurant</cmt>
  <desc>Restaurant:Ho Wah Chinese Restaurant</desc>
</wpt>
<wpt lat="38.915773100" lon="-77.511596400">
  <name>Cafe:Starbucks</name>
  <cmt>Cafe:Starbucks</cmt>
  <desc>Cafe:Starbucks</desc>
</wpt>
<wpt lat="38.290369100" lon="-77.511142700">
  <name>Pub:Park Lane Tavern</name>
  <cmt>Pub:Park Lane Tavern</cmt>
  <desc>Pub:Park Lane Tavern</desc>
</wpt>
<wpt lat="38.290440700" lon="-77.510311200">
  <name>Restaurant:Cheeburger Cheeburger</name>
  <cmt>Restaurant:Cheeburger Cheeburger</cmt>
  <desc>Restaurant:Cheeburger Cheeburger</desc>
</wpt>
<wpt lat="38.306534400" lon="-77.509822700">
  <name>Restaurant:O&apos;Charley&apos;s</name>
  <cmt>Restaurant:O&apos;Charley&apos;s</cmt>
  <desc>Restaurant:O&apos;Charley&apos;s</desc>
</wpt>
<wpt lat="38.288995800" lon="-77.509433000">
  <name>Restaurant:Splitsville</name>
  <cmt>Restaurant:Splitsville</cmt>
  <desc>Restaurant:Splitsville</desc>
</wpt>
<wpt lat="38.305843600" lon="-77.509262100">
  <name>Fast Food Restaurant:McDonald&apos;s</name>
  <cmt>Fast Food Restaurant:McDonald&apos;s</cmt>
  <desc>Fast Food Restaurant:McDonald&apos;s</desc>
</wpt>
<wpt lat="37.632613400" lon="-77.508862800">
  <name>Cafe:Panera</name>
  <cmt>Cafe:Panera</cmt>
  <desc>Cafe:Panera</desc>
</wpt>
<wpt lat="38.305145900" lon="-77.508704200">
  <name>Fast Food Restaurant:Long John Silvers</name>
  <cmt>Fast Food Restaurant:Long John Silvers</cmt>
  <desc>Fast Food Restaurant:Long John Silvers</desc>
</wpt>
<wpt lat="39.008450000" lon="-77.508551100">
  <name>Restaurant:Anothai</name>
  <cmt>Restaurant:Anothai</cmt>
  <desc>Restaurant:Anothai</desc>
</wpt>
<wpt lat="38.905939100" lon="-77.508495100">
  <name>Cafe:club house</name>
  <cmt>Cafe:club house</cmt>
  <desc>Cafe:club house</desc>
</wpt>
<wpt lat="37.633046600" lon="-77.508047500">
  <name>Fast Food Restaurant:Burger King</name>
  <cmt>Fast Food Restaurant:Burger King</cmt>
  <desc>Fast Food Restaurant:Burger King</desc>
</wpt>
<wpt lat="38.303883100" lon="-77.507800300">
  <name>Fast Food Restaurant:Five Guys</name>
  <cmt>Fast Food Restaurant:Five Guys</cmt>
  <desc>Fast Food Restaurant:Five Guys</desc>
</wpt>
<wpt lat="38.353196300" lon="-77.507327300">
  <name>Fast Food Restaurant:McDonald&apos;s</name>
  <cmt>Fast Food Restaurant:McDonald&apos;s</cmt>
  <desc>Fast Food Restaurant:McDonald&apos;s</desc>
</wpt>
<wpt lat="39.008437500" lon="-77.507124100">
  <name>Fast Food Restaurant:McDonald&apos;s</name>
  <cmt>Fast Food Restaurant:McDonald&apos;s</cmt>
  <desc>Fast Food Restaurant:McDonald&apos;s</desc>
</wpt>
<wpt lat="39.008471700" lon="-77.506656600">
  <name>Fast Food Restaurant:Taco Bell</name>
  <cmt>Fast Food Restaurant:Taco Bell</cmt>
  <desc>Fast Food Restaurant:Taco Bell</desc>
</wpt>
<wpt lat="38.922767700" lon="-77.506647800">
  <name>Fast Food Restaurant:McDonald&apos;s</name>
  <cmt>Fast Food Restaurant:McDonald&apos;s</cmt>
  <desc>Fast Food Restaurant:McDonald&apos;s</desc>
</wpt>
<wpt lat="38.223013700" lon="-77.505935900">
  <name>Fast Food Restaurant:Noodles &amp; Company</name>
  <cmt>Fast Food Restaurant:Noodles &amp; Company</cmt>
  <desc>Fast Food Restaurant:Noodles &amp; Company</desc>
</wpt>
<wpt lat="38.223699300" lon="-77.505580500">
  <name>Restaurant:Aubergine</name>
  <cmt>Restaurant:Aubergine</cmt>
  <desc>Restaurant:Aubergine</desc>
</wpt>
<wpt lat="38.225232000" lon="-77.505176400">
  <name>Restaurant:Panera</name>
  <cmt>Restaurant:Panera</cmt>
  <desc>Restaurant:Panera</desc>
</wpt>
<wpt lat="38.225249100" lon="-77.504277000">
  <name>Restaurant:Glory Days Grill</name>
  <cmt>Restaurant:Glory Days Grill</cmt>
  <desc>Restaurant:Glory Days Grill</desc>
</wpt>
<wpt lat="38.222344500" lon="-77.504263200">
  <name>Fast Food Restaurant:Subway</name>
  <cmt>Fast Food Restaurant:Subway</cmt>
  <desc>Fast Food Restaurant:Subway</desc>
</wpt>
<wpt lat="38.222456400" lon="-77.504232300">
  <name>Restaurant:Pan Asian</name>
  <cmt>Restaurant:Pan Asian</cmt>
  <desc>Restaurant:Pan Asian</desc>
</wpt>
<wpt lat="38.222706200" lon="-77.504174200">
  <name>Restaurant:Mexico Restaurant</name>
  <cmt>Restaurant:Mexico Restaurant</cmt>
  <desc>Restaurant:Mexico Restaurant</desc>
</wpt>
<wpt lat="38.223936900" lon="-77.503919100">
  <name>Restaurant:Grioli&apos;s</name>
  <cmt>Restaurant:Grioli&apos;s</cmt>
  <desc>Restaurant:Grioli&apos;s</desc>
</wpt>
<wpt lat="38.224772200" lon="-77.503794400">
  <name>Restaurant:Ledo Pizza &amp; Pasta</name>
  <cmt>Restaurant:Ledo Pizza &amp; Pasta</cmt>
  <desc>Restaurant:Ledo Pizza &amp; Pasta</desc>
</wpt>
<wpt lat="38.227471800" lon="-77.503545200">
  <name>Restaurant:Grand Buffet</name>
  <cmt>Restaurant:Grand Buffet</cmt>
  <desc>Restaurant:Grand Buffet</desc>
</wpt>
<wpt lat="38.227566400" lon="-77.503518700">
  <name>Restaurant:Kappa Sushi</name>
  <cmt>Restaurant:Kappa Sushi</cmt>
  <desc>Restaurant:Kappa Sushi</desc>
</wpt>
<wpt lat="38.227671700" lon="-77.503489300">
  <name>Restaurant:Five Guys</name>
  <cmt>Restaurant:Five Guys</cmt>
  <desc>Restaurant:Five Guys</desc>
</wpt>
<wpt lat="38.253785600" lon="-77.499686800">
  <name>Fast Food Restaurant:Dairy Queen</name>
  <cmt>Fast Food Restaurant:Dairy Queen</cmt>
  <desc>Fast Food Restaurant:Dairy Queen</desc>
</wpt>
<wpt lat="37.981906300" lon="-77.493596900">
  <name>Drinking water source</name>
  <cmt>Drinking water source</cmt>
  <desc>Drinking water source</desc>
</wpt>
<wpt lat="38.342887100" lon="-77.493277600">
  <name>Fast Food Restaurant:McDonald&apos;s</name>
  <cmt>Fast Food Restaurant:McDonald&apos;s</cmt>
  <desc>Fast Food Restaurant:McDonald&apos;s</desc>
</wpt>
<wpt lat="37.980993100" lon="-77.491748900">
  <name>Drinking water source</name>
  <cmt>Drinking water source</cmt>
  <desc>Drinking water source</desc>
</wpt>
<wpt lat="39.044417400" lon="-77.487520000">
  <name>Restaurant:Mediterrean Breeze</name>
  <cmt>Restaurant:Mediterrean Breeze</cmt>
  <desc>Restaurant:Mediterrean Breeze</desc>
</wpt>
<wpt lat="39.043769600" lon="-77.487312400">
  <name>Restaurant:Carolina Brothers BBQ</name>
  <cmt>Restaurant:Carolina Brothers BBQ</cmt>
  <desc>Restaurant:Carolina Brothers BBQ</desc>
</wpt>
<wpt lat="39.028662800" lon="-77.487267900">
  <name>Restaurant:Buffalo Wing Factory</name>
  <cmt>Restaurant:Buffalo Wing Factory</cmt>
  <desc>Restaurant:Buffalo Wing Factory</desc>
</wpt>
<wpt lat="39.023605100" lon="-77.480782600">
  <name>Restaurant:Manhattan Pizzeria</name>
  <cmt>Restaurant:Manhattan Pizzeria</cmt>
  <desc>Restaurant:Manhattan Pizzeria</desc>
</wpt>
<wpt lat="39.022966000" lon="-77.479580600">
  <name>Fast Food Restaurant:KFC / Taco Bell</name>
  <cmt>Fast Food Restaurant:KFC / Taco Bell</cmt>
  <desc>Fast Food Restaurant:KFC / Taco Bell</desc>
</wpt>
<wpt lat="39.022228300" lon="-77.478588200">
  <name>Restaurant:International House of Pancakes (IHOP)</name>
  <cmt>Restaurant:International House of Pancakes (IHOP)</cmt>
  <desc>Restaurant:International House of Pancakes (IHOP)</desc>
</wpt>
<wpt lat="39.022492700" lon="-77.478123100">
  <name>Restaurant:Fudruckers</name>
  <cmt>Restaurant:Fudruckers</cmt>
  <desc>Restaurant:Fudruckers</desc>
</wpt>
<wpt lat="39.022868000" lon="-77.477769100">
  <name>Restaurant:Bertucci&apos;s</name>
  <cmt>Restaurant:Bertucci&apos;s</cmt>
  <desc>Restaurant:Bertucci&apos;s</desc>
</wpt>
<wpt lat="38.443580800" lon="-77.477726500">
  <name>Cafe:club house</name>
  <cmt>Cafe:club house</cmt>
  <desc>Cafe:club house</desc>
</wpt>
<wpt lat="39.022790900" lon="-77.476603400">
  <name>Cafe:Starbucks</name>
  <cmt>Cafe:Starbucks</cmt>
  <desc>Cafe:Starbucks</desc>
</wpt>
<wpt lat="38.750441600" lon="-77.473072800">
  <name>Fast Food Restaurant:Foster&apos;s</name>
  <cmt>Fast Food Restaurant:Foster&apos;s</cmt>
  <desc>Fast Food Restaurant:Foster&apos;s</desc>
</wpt>
<wpt lat="38.750475000" lon="-77.472592700">
  <name>Restaurant:City Square Cafe</name>
  <cmt>Restaurant:City Square Cafe</cmt>
  <desc>Restaurant:City Square Cafe</desc>
</wpt>
<wpt lat="38.781870700" lon="-77.471905700">
  <name>Restaurant</name>
  <cmt>Restaurant</cmt>
  <desc>Restaurant</desc>
</wpt>
<wpt lat="38.305368300" lon="-77.460399200">
  <name>Cafe:Eileen&apos;s Cafe &amp; Bakery</name>
  <cmt>Cafe:Eileen&apos;s Cafe &amp; Bakery</cmt>
  <desc>Cafe:Eileen&apos;s Cafe &amp; Bakery</desc>
</wpt>
<wpt lat="38.468474100" lon="-77.460249000">
  <name>Fast Food Restaurant:Mc Donald</name>
  <cmt>Fast Food Restaurant:Mc Donald</cmt>
  <desc>Fast Food Restaurant:Mc Donald</desc>
</wpt>
<wpt lat="38.303050600" lon="-77.459038700">
  <name>Restaurant:Basil&apos;s Italian Market &amp; Pizzeria</name>
  <cmt>Restaurant:Basil&apos;s Italian Market &amp; Pizzeria</cmt>
  <desc>Restaurant:Basil&apos;s Italian Market &amp; Pizzeria</desc>
</wpt>
<wpt lat="37.589940800" lon="-77.458523100">
  <name>Restaurant:Dot&apos;s Back Inn</name>
  <cmt>Restaurant:Dot&apos;s Back Inn</cmt>
  <desc>Restaurant:Dot&apos;s Back Inn</desc>
</wpt>
<wpt lat="37.589732500" lon="-77.458507000">
  <name>Restaurant:Zorba&apos;s Pizza</name>
  <cmt>Restaurant:Zorba&apos;s Pizza</cmt>
  <desc>Restaurant:Zorba&apos;s Pizza</desc>
</wpt>
<wpt lat="38.834748900" lon="-77.454035500">
  <name>Fast Food Restaurant:Dunkin&apos; Donuts</name>
  <cmt>Fast Food Restaurant:Dunkin&apos; Donuts</cmt>
  <desc>Fast Food Restaurant:Dunkin&apos; Donuts</desc>
</wpt>
<wpt lat="38.853195000" lon="-77.450091600">
  <name>Fast Food Restaurant:McDonald&apos;s</name>
  <cmt>Fast Food Restaurant:McDonald&apos;s</cmt>
  <desc>Fast Food Restaurant:McDonald&apos;s</desc>
</wpt>
<wpt lat="38.853512500" lon="-77.449863100">
  <name>Restaurant:Starbucks</name>
  <cmt>Restaurant:Starbucks</cmt>
  <desc>Restaurant:Starbucks</desc>
</wpt>
<wpt lat="37.355022200" lon="-77.447907400">
  <name>Cafe:Dunkin Donuts</name>
  <cmt>Cafe:Dunkin Donuts</cmt>
  <desc>Cafe:Dunkin Donuts</desc>
</wpt>
<wpt lat="38.894113500" lon="-77.447631400">
  <name>Cafe:Starbucks</name>
  <cmt>Cafe:Starbucks</cmt>
  <desc>Cafe:Starbucks</desc>
</wpt>
<wpt lat="38.894275100" lon="-77.447376100">
  <name>Restaurant:Five Guys</name>
  <cmt>Restaurant:Five Guys</cmt>
  <desc>Restaurant:Five Guys</desc>
</wpt>
<wpt lat="38.296514000" lon="-77.447005100">
  <name>Fast Food Restaurant:McDonald&apos;s</name>
  <cmt>Fast Food Restaurant:McDonald&apos;s</cmt>
  <desc>Fast Food Restaurant:McDonald&apos;s</desc>
</wpt>
<wpt lat="38.894809600" lon="-77.446483400">
  <name>Fast Food Restaurant:Quizno&apos;s</name>
  <cmt>Fast Food Restaurant:Quizno&apos;s</cmt>
  <desc>Fast Food Restaurant:Quizno&apos;s</desc>
</wpt>
<wpt lat="38.297949600" lon="-77.446431400">
  <name>Fast Food Restaurant:Dairy Queen</name>
  <cmt>Fast Food Restaurant:Dairy Queen</cmt>
  <desc>Fast Food Restaurant:Dairy Queen</desc>
</wpt>
<wpt lat="38.899225000" lon="-77.445625100">
  <name>Restaurant:Red Robin</name>
  <cmt>Restaurant:Red Robin</cmt>
  <desc>Restaurant:Red Robin</desc>
</wpt>
<wpt lat="38.887193700" lon="-77.444972800">
  <name>Fast Food Restaurant:Arby&apos;s</name>
  <cmt>Fast Food Restaurant:Arby&apos;s</cmt>
  <desc>Fast Food Restaurant:Arby&apos;s</desc>
</wpt>
<wpt lat="38.886498900" lon="-77.444826900">
  <name>Fast Food Restaurant:Chick-Fil-A</name>
  <cmt>Fast Food Restaurant:Chick-Fil-A</cmt>
  <desc>Fast Food Restaurant:Chick-Fil-A</desc>
</wpt>
<wpt lat="38.885730600" lon="-77.444543700">
  <name>Fast Food Restaurant:Wendy&apos;s</name>
  <cmt>Fast Food Restaurant:Wendy&apos;s</cmt>
  <desc>Fast Food Restaurant:Wendy&apos;s</desc>
</wpt>
<wpt lat="38.887153600" lon="-77.444500700">
  <name>Fast Food Restaurant:Burger King</name>
  <cmt>Fast Food Restaurant:Burger King</cmt>
  <desc>Fast Food Restaurant:Burger King</desc>
</wpt>
<wpt lat="38.886599100" lon="-77.444423500">
  <name>Fast Food Restaurant:Taco Bell</name>
  <cmt>Fast Food Restaurant:Taco Bell</cmt>
  <desc>Fast Food Restaurant:Taco Bell</desc>
</wpt>
<wpt lat="38.886144800" lon="-77.444286200">
  <name>Fast Food Restaurant:McDonald&apos;s</name>
  <cmt>Fast Food Restaurant:McDonald&apos;s</cmt>
  <desc>Fast Food Restaurant:McDonald&apos;s</desc>
</wpt>
<wpt lat="38.885570200" lon="-77.443934400">
  <name>Restaurant:Hooters</name>
  <cmt>Restaurant:Hooters</cmt>
  <desc>Restaurant:Hooters</desc>
</wpt>
<wpt lat="38.897474900" lon="-77.443487900">
  <name>Fast Food Restaurant:Chipotle</name>
  <cmt>Fast Food Restaurant:Chipotle</cmt>
  <desc>Fast Food Restaurant:Chipotle</desc>
</wpt>
<wpt lat="38.897287900" lon="-77.442758400">
  <name>Restaurant:Cici&apos;s Pizza</name>
  <cmt>Restaurant:Cici&apos;s Pizza</cmt>
  <desc>Restaurant:Cici&apos;s Pizza</desc>
</wpt>
<wpt lat="38.838187600" lon="-77.439802600">
  <name>Fast Food Restaurant:Quizno&apos;s</name>
  <cmt>Fast Food Restaurant:Quizno&apos;s</cmt>
  <desc>Fast Food Restaurant:Quizno&apos;s</desc>
</wpt>
<wpt lat="38.838012100" lon="-77.439534400">
  <name>Fast Food Restaurant:Pizza Hut</name>
  <cmt>Fast Food Restaurant:Pizza Hut</cmt>
  <desc>Fast Food Restaurant:Pizza Hut</desc>
</wpt>
<wpt lat="38.838204300" lon="-77.438726500">
  <name>Restaurant:Ruby Tuesday</name>
  <cmt>Restaurant:Ruby Tuesday</cmt>
  <desc>Restaurant:Ruby Tuesday</desc>
</wpt>
<wpt lat="38.837385300" lon="-77.438651400">
  <name>Restaurant:Sino&apos;s Inn</name>
  <cmt>Restaurant:Sino&apos;s Inn</cmt>
  <desc>Restaurant:Sino&apos;s Inn</desc>
</wpt>
<wpt lat="38.839535500" lon="-77.438545900">
  <name>Restaurant:Copper Canyon Grill</name>
  <cmt>Restaurant:Copper Canyon Grill</cmt>
  <desc>Restaurant:Copper Canyon Grill</desc>
</wpt>
<wpt lat="39.005732200" lon="-77.438534200">
  <name>Restaurant:Pei Wei</name>
  <cmt>Restaurant:Pei Wei</cmt>
  <desc>Restaurant:Pei Wei</desc>
</wpt>
<wpt lat="38.838195900" lon="-77.438268400">
  <name>Fast Food Restaurant:Panda Express</name>
  <cmt>Fast Food Restaurant:Panda Express</cmt>
  <desc>Fast Food Restaurant:Panda Express</desc>
</wpt>
<wpt lat="39.005577000" lon="-77.438225000">
  <name>Restaurant:Cheeburger Cheeburger</name>
  <cmt>Restaurant:Cheeburger Cheeburger</cmt>
  <desc>Restaurant:Cheeburger Cheeburger</desc>
</wpt>
<wpt lat="38.828286400" lon="-77.438207900">
  <name>Fast Food Restaurant:Chipotle</name>
  <cmt>Fast Food Restaurant:Chipotle</cmt>
  <desc>Fast Food Restaurant:Chipotle</desc>
</wpt>
<wpt lat="38.828436800" lon="-77.437853900">
  <name>Restaurant:Bonefish Grill</name>
  <cmt>Restaurant:Bonefish Grill</cmt>
  <desc>Restaurant:Bonefish Grill</desc>
</wpt>
<wpt lat="38.837289500" lon="-77.437781300">
  <name>Fast Food Restaurant:McDonald&apos;s</name>
  <cmt>Fast Food Restaurant:McDonald&apos;s</cmt>
  <desc>Fast Food Restaurant:McDonald&apos;s</desc>
</wpt>
<wpt lat="37.533574200" lon="-77.437430400">
  <name>Restaurant:BlackFinn</name>
  <cmt>Restaurant:BlackFinn</cmt>
  <desc>Restaurant:BlackFinn</desc>
</wpt>
<wpt lat="38.836336800" lon="-77.437402500">
  <name>Restaurant:Starbucks</name>
  <cmt>Restaurant:Starbucks</cmt>
  <desc>Restaurant:Starbucks</desc>
</wpt>
<wpt lat="37.537254500" lon="-77.435176100">
  <name>Restaurant:Bank</name>
  <cmt>Restaurant:Bank</cmt>
  <desc>Restaurant:Bank</desc>
</wpt>
<wpt lat="37.537109900" lon="-77.434945900">
  <name>Fast Food Restaurant:Padow&apos;s Deli</name>
  <cmt>Fast Food Restaurant:Padow&apos;s Deli</cmt>
  <desc>Fast Food Restaurant:Padow&apos;s Deli</desc>
</wpt>
<wpt lat="37.535638100" lon="-77.434639600">
  <name>Restaurant:Tobacco Company</name>
  <cmt>Restaurant:Tobacco Company</cmt>
  <desc>Restaurant:Tobacco Company</desc>
</wpt>
<wpt lat="37.535514000" lon="-77.434330000">
  <name>Restaurant:Bouchoun</name>
  <cmt>Restaurant:Bouchoun</cmt>
  <desc>Restaurant:Bouchoun</desc>
</wpt>
<wpt lat="37.534999300" lon="-77.434271000">
  <name>Cafe:Shockoe Espresso</name>
  <cmt>Cafe:Shockoe Espresso</cmt>
  <desc>Cafe:Shockoe Espresso</desc>
</wpt>
<wpt lat="37.535723100" lon="-77.434092500">
  <name>Restaurant:Sam Miller&apos;s Oyster Bar</name>
  <cmt>Restaurant:Sam Miller&apos;s Oyster Bar</cmt>
  <desc>Restaurant:Sam Miller&apos;s Oyster Bar</desc>
</wpt>
<wpt lat="37.535305600" lon="-77.433965300">
  <name>Cafe:Urban Farm House Cafe</name>
  <cmt>Cafe:Urban Farm House Cafe</cmt>
  <desc>Cafe:Urban Farm House Cafe</desc>
</wpt>
<wpt lat="37.536513900" lon="-77.433894500">
  <name>Fast Food Restaurant:JoJo&apos;s Pizza</name>
  <cmt>Fast Food Restaurant:JoJo&apos;s Pizza</cmt>
  <desc>Fast Food Restaurant:JoJo&apos;s Pizza</desc>
</wpt>
<wpt lat="37.535629600" lon="-77.433792000">
  <name>Restaurant:La Grotta</name>
  <cmt>Restaurant:La Grotta</cmt>
  <desc>Restaurant:La Grotta</desc>
</wpt>
<wpt lat="37.536445900" lon="-77.433755000">
  <name>Fast Food Restaurant:Quiznos</name>
  <cmt>Fast Food Restaurant:Quiznos</cmt>
  <desc>Fast Food Restaurant:Quiznos</desc>
</wpt>
<wpt lat="37.535340300" lon="-77.433620400">
  <name>Restaurant:Peking</name>
  <cmt>Restaurant:Peking</cmt>
  <desc>Restaurant:Peking</desc>
</wpt>
<wpt lat="37.536352300" lon="-77.433604800">
  <name>Fast Food Restaurant:Subway</name>
  <cmt>Fast Food Restaurant:Subway</cmt>
  <desc>Fast Food Restaurant:Subway</desc>
</wpt>
<wpt lat="37.535527500" lon="-77.433448700">
  <name>Restaurant:Kobe</name>
  <cmt>Restaurant:Kobe</cmt>
  <desc>Restaurant:Kobe</desc>
</wpt>
<wpt lat="38.839975900" lon="-77.433314400">
  <name>Restaurant:Preet Palace</name>
  <cmt>Restaurant:Preet Palace</cmt>
  <desc>Restaurant:Preet Palace</desc>
</wpt>
<wpt lat="38.840126400" lon="-77.433265600">
  <name>Restaurant:Fast Eddie&apos;s</name>
  <cmt>Restaurant:Fast Eddie&apos;s</cmt>
  <desc>Restaurant:Fast Eddie&apos;s</desc>
</wpt>
<wpt lat="37.535144600" lon="-77.433126900">
  <name>Restaurant:City Dogs</name>
  <cmt>Restaurant:City Dogs</cmt>
  <desc>Restaurant:City Dogs</desc>
</wpt>
<wpt lat="37.534532100" lon="-77.432807700">
  <name>Pub:Sine</name>
  <cmt>Pub:Sine</cmt>
  <desc>Pub:Sine</desc>
</wpt>
<wpt lat="38.834376000" lon="-77.432728200">
  <name>Fast Food Restaurant:McDonald&apos;s</name>
  <cmt>Fast Food Restaurant:McDonald&apos;s</cmt>
  <desc>Fast Food Restaurant:McDonald&apos;s</desc>
</wpt>
<wpt lat="37.534152800" lon="-77.432050200">
  <name>Restaurant:Europa</name>
  <cmt>Restaurant:Europa</cmt>
  <desc>Restaurant:Europa</desc>
</wpt>
<wpt lat="37.534081100" lon="-77.431947800">
  <name>Restaurant:Harshell</name>
  <cmt>Restaurant:Harshell</cmt>
  <desc>Restaurant:Harshell</desc>
</wpt>
<wpt lat="37.533961400" lon="-77.431733700">
  <name>Restaurant:Cha Cha&apos;s</name>
  <cmt>Restaurant:Cha Cha&apos;s</cmt>
  <desc>Restaurant:Cha Cha&apos;s</desc>
</wpt>
<wpt lat="39.003639900" lon="-77.431676700">
  <name>Restaurant:Buffalo Wing Factory</name>
  <cmt>Restaurant:Buffalo Wing Factory</cmt>
  <desc>Restaurant:Buffalo Wing Factory</desc>
</wpt>
<wpt lat="37.533846500" lon="-77.431529800">
  <name>Restaurant:Luck Buddha</name>
  <cmt>Restaurant:Luck Buddha</cmt>
  <desc>Restaurant:Luck Buddha</desc>
</wpt>
<wpt lat="38.834931800" lon="-77.431531900">
  <name>Fast Food Restaurant:Burger King</name>
  <cmt>Fast Food Restaurant:Burger King</cmt>
  <desc>Fast Food Restaurant:Burger King</desc>
</wpt>
<wpt lat="38.838346400" lon="-77.429113500">
  <name>Restaurant:Alto Plaza</name>
  <cmt>Restaurant:Alto Plaza</cmt>
  <desc>Restaurant:Alto Plaza</desc>
</wpt>
<wpt lat="38.476255900" lon="-77.428265500">
  <name>Fast Food Restaurant:Ice Cream</name>
  <cmt>Fast Food Restaurant:Ice Cream</cmt>
  <desc>Fast Food Restaurant:Ice Cream</desc>
</wpt>
<wpt lat="38.838421600" lon="-77.427600700">
  <name>Restaurant:IHOP</name>
  <cmt>Restaurant:IHOP</cmt>
  <desc>Restaurant:IHOP</desc>
</wpt>
<wpt lat="38.893259700" lon="-77.427489100">
  <name>Fast Food Restaurant:Wendy&apos;s</name>
  <cmt>Fast Food Restaurant:Wendy&apos;s</cmt>
  <desc>Fast Food Restaurant:Wendy&apos;s</desc>
</wpt>
<wpt lat="39.005090800" lon="-77.426933500">
  <name>Cafe:Joe&apos;s Diner</name>
  <cmt>Cafe:Joe&apos;s Diner</cmt>
  <desc>Cafe:Joe&apos;s Diner</desc>
</wpt>
<wpt lat="38.894235100" lon="-77.426356100">
  <name>Fast Food Restaurant:Dairy Queen</name>
  <cmt>Fast Food Restaurant:Dairy Queen</cmt>
  <desc>Fast Food Restaurant:Dairy Queen</desc>
</wpt>
<wpt lat="38.892798800" lon="-77.425635200">
  <name>Restaurant:iHop</name>
  <cmt>Restaurant:iHop</cmt>
  <desc>Restaurant:iHop</desc>
</wpt>
<wpt lat="38.894976600" lon="-77.425223200">
  <name>Restaurant:TGIF</name>
  <cmt>Restaurant:TGIF</cmt>
  <desc>Restaurant:TGIF</desc>
</wpt>
<wpt lat="37.531305100" lon="-77.424675900">
  <name>Cafe:GlobeHopper Coffeehouse</name>
  <cmt>Cafe:GlobeHopper Coffeehouse</cmt>
  <desc>Cafe:GlobeHopper Coffeehouse</desc>
</wpt>
<wpt lat="38.958780600" lon="-77.424648000">
  <name>Cafe:Spices and Beyond</name>
  <cmt>Cafe:Spices and Beyond</cmt>
  <desc>Cafe:Spices and Beyond</desc>
</wpt>
<wpt lat="38.979674300" lon="-77.423563100">
  <name>Fast Food Restaurant:Burger King</name>
  <cmt>Fast Food Restaurant:Burger King</cmt>
  <desc>Fast Food Restaurant:Burger King</desc>
</wpt>
<wpt lat="39.032957000" lon="-77.422854000">
  <name>Restaurant:Cheesecake Factory</name>
  <cmt>Restaurant:Cheesecake Factory</cmt>
  <desc>Restaurant:Cheesecake Factory</desc>
</wpt>
<wpt lat="39.035902000" lon="-77.420482000">
  <name>Restaurant:Taste of Burma</name>
  <cmt>Restaurant:Taste of Burma</cmt>
  <desc>Restaurant:Taste of Burma</desc>
</wpt>
<wpt lat="37.528294000" lon="-77.420370700">
  <name>Restaurant:Millie&apos;s</name>
  <cmt>Restaurant:Millie&apos;s</cmt>
  <desc>Restaurant:Millie&apos;s</desc>
</wpt>
<wpt lat="39.123494800" lon="-77.420244100">
  <name>Cafe:Club House</name>
  <cmt>Cafe:Club House</cmt>
  <desc>Cafe:Club House</desc>
</wpt>
<wpt lat="38.921959400" lon="-77.416957700">
  <name>Fast Food Restaurant:Popeye&apos;s Chicken &amp; Biscuits</name>
  <cmt>Fast Food Restaurant:Popeye&apos;s Chicken &amp; Biscuits</cmt>
  <desc>Fast Food Restaurant:Popeye&apos;s Chicken &amp; Biscuits</desc>
</wpt>
<wpt lat="38.470040700" lon="-77.416840100">
  <name>Restaurant:Korean Restaurant</name>
  <cmt>Restaurant:Korean Restaurant</cmt>
  <desc>Restaurant:Korean Restaurant</desc>
</wpt>
<wpt lat="38.922526100" lon="-77.416667700">
  <name>Fast Food Restaurant:Burger King</name>
  <cmt>Fast Food Restaurant:Burger King</cmt>
  <desc>Fast Food Restaurant:Burger King</desc>
</wpt>
<wpt lat="38.833444000" lon="-77.414472300">
  <name>Restaurant:Outback Steakhouse</name>
  <cmt>Restaurant:Outback Steakhouse</cmt>
  <desc>Restaurant:Outback Steakhouse</desc>
</wpt>
<wpt lat="38.471791500" lon="-77.414151700">
  <name>Fast Food Restaurant:Mc Donald</name>
  <cmt>Fast Food Restaurant:Mc Donald</cmt>
  <desc>Fast Food Restaurant:Mc Donald</desc>
</wpt>
<wpt lat="39.038901700" lon="-77.413377800">
  <name>Cafe:Starbucks</name>
  <cmt>Cafe:Starbucks</cmt>
  <desc>Cafe:Starbucks</desc>
</wpt>