<?xml version="1.0" encoding="UTF-8"?>
<gpx
 version="1.0"
creator="GPSBabel - http://www.gpsbabel.org"
xmlns:xsi="http://www.w3.org/2001/XMLSchema-instance"
xmlns="http://www.topografix.com/GPX/1/0"
xsi:schemaLocation="http://www.topografix.com/GPX/1/0 http://www.topografix.com/GPX/1/0/gpx.xsd">
<time>2011-12-15T22:24:35Z</time>
<bounds minlat="36.445984000" minlon="-83.890475600" maxlat="39.528705900" maxlon="-75.299637700"/>
<wpt lat="36.514801600" lon="-83.890475600">
  <name>Peak:Leach Mountain</name>
  <cmt>Peak:Leach Mountain</cmt>
  <desc>Peak:Leach Mountain</desc>
</wpt>
<wpt lat="36.526746400" lon="-83.870197400">
  <name>Peak:Double Mountain</name>
  <cmt>Peak:Double Mountain</cmt>
  <desc>Peak:Double Mountain</desc>
</wpt>
<wpt lat="36.537024400" lon="-83.869642000">
  <name>Peak:North Mountain</name>
  <cmt>Peak:North Mountain</cmt>
  <desc>Peak:North Mountain</desc>
</wpt>
<wpt lat="36.537857800" lon="-83.861863900">
  <name>Peak:Horseshoe Mountain</name>
  <cmt>Peak:Horseshoe Mountain</cmt>
  <desc>Peak:Horseshoe Mountain</desc>
</wpt>
<wpt lat="36.534524300" lon="-83.839918700">
  <name>Peak:Chimney Rocks</name>
  <cmt>Peak:Chimney Rocks</cmt>
  <desc>Peak:Chimney Rocks</desc>
</wpt>
<wpt lat="36.569247500" lon="-83.835197000">
  <name>Peak:Bryson Mountain</name>
  <cmt>Peak:Bryson Mountain</cmt>
  <desc>Peak:Bryson Mountain</desc>
</wpt>
<wpt lat="36.597303700" lon="-83.796862600">
  <name>Tower:WMIK-FM (Middlesboro)</name>
  <cmt>Tower:WMIK-FM (Middlesboro)</cmt>
  <desc>Tower:WMIK-FM (Middlesboro)</desc>
</wpt>
<wpt lat="36.565080700" lon="-83.783806100">
  <name>Peak:Nicholson Mountain</name>
  <cmt>Peak:Nicholson Mountain</cmt>
  <desc>Peak:Nicholson Mountain</desc>
</wpt>
<wpt lat="36.627304900" lon="-83.714360300">
  <name>Tower:WMIK-AM (Middlesboro)</name>
  <cmt>Tower:WMIK-AM (Middlesboro)</cmt>
  <desc>Tower:WMIK-AM (Middlesboro)</desc>
</wpt>
<wpt lat="36.613138000" lon="-83.709360000">
  <name>Tower:WFXY-AM (Middlesboro)</name>
  <cmt>Tower:WFXY-AM (Middlesboro)</cmt>
  <desc>Tower:WFXY-AM (Middlesboro)</desc>
</wpt>
<wpt lat="36.559803400" lon="-83.708803500">
  <name>Peak:Powell Mountain</name>
  <cmt>Peak:Powell Mountain</cmt>
  <desc>Peak:Powell Mountain</desc>
</wpt>
<wpt lat="36.669528100" lon="-83.707416500">
  <name>Peak:Canada Mountain</name>
  <cmt>Peak:Canada Mountain</cmt>
  <desc>Peak:Canada Mountain</desc>
</wpt>
<wpt lat="36.715640400" lon="-83.682416700">
  <name>Peak:Flag Top</name>
  <cmt>Peak:Flag Top</cmt>
  <desc>Peak:Flag Top</desc>
</wpt>
<wpt lat="36.683417500" lon="-83.677138200">
  <name>Peak:Rocky Face</name>
  <cmt>Peak:Rocky Face</cmt>
  <desc>Peak:Rocky Face</desc>
</wpt>
<wpt lat="36.601749300" lon="-83.674636600">
  <name>Peak:Tri-State Peak</name>
  <cmt>Peak:Tri-State Peak</cmt>
  <desc>Peak:Tri-State Peak</desc>
</wpt>
<wpt lat="36.600915900" lon="-83.674358700">
  <name>Peak:Tri-State Peak</name>
  <cmt>Peak:Tri-State Peak</cmt>
  <desc>Peak:Tri-State Peak</desc>
</wpt>
<wpt lat="36.605916100" lon="-83.665469800">
  <name>Peak:The Pinnacle</name>
  <cmt>Peak:The Pinnacle</cmt>
  <desc>Peak:The Pinnacle</desc>
</wpt>
<wpt lat="36.504247600" lon="-83.661300900">
  <name>Peak:Cline Knob</name>
  <cmt>Peak:Cline Knob</cmt>
  <desc>Peak:Cline Knob</desc>
</wpt>
<wpt lat="36.575637900" lon="-83.660191200">
  <name>Tower:WSVQ-AM (Harrogate)</name>
  <cmt>Tower:WSVQ-AM (Harrogate)</cmt>
  <desc>Tower:WSVQ-AM (Harrogate)</desc>
</wpt>
<wpt lat="36.553415700" lon="-83.629356400">
  <name>Peak:Gobblers Knob</name>
  <cmt>Peak:Gobblers Knob</cmt>
  <desc>Peak:Gobblers Knob</desc>
</wpt>
<wpt lat="36.721474200" lon="-83.581859200">
  <name>Peak:Bailey Hill</name>
  <cmt>Peak:Bailey Hill</cmt>
  <desc>Peak:Bailey Hill</desc>
</wpt>
<wpt lat="36.659529000" lon="-83.566579500">
  <name>Peak:Brush Mountain</name>
  <cmt>Peak:Brush Mountain</cmt>
  <desc>Peak:Brush Mountain</desc>
</wpt>
<wpt lat="36.618139800" lon="-83.561300400">
  <name>Peak:Walnut Hill</name>
  <cmt>Peak:Walnut Hill</cmt>
  <desc>Peak:Walnut Hill</desc>
</wpt>
<wpt lat="36.767863700" lon="-83.535192300">
  <name>Peak:Chestnut Flats</name>
  <cmt>Peak:Chestnut Flats</cmt>
  <desc>Peak:Chestnut Flats</desc>
</wpt>
<wpt lat="36.745918900" lon="-83.526025500">
  <name>Peak:Jackson Knob</name>
  <cmt>Peak:Jackson Knob</cmt>
  <desc>Peak:Jackson Knob</desc>
</wpt>
<wpt lat="36.816197600" lon="-83.478801000">
  <name>Peak:Bob Lowe Knob</name>
  <cmt>Peak:Bob Lowe Knob</cmt>
  <desc>Peak:Bob Lowe Knob</desc>
</wpt>
<wpt lat="36.783975200" lon="-83.467411900">
  <name>Peak:Reynolds Mountain</name>
  <cmt>Peak:Reynolds Mountain</cmt>
  <desc>Peak:Reynolds Mountain</desc>
</wpt>
<wpt lat="36.666752500" lon="-83.442964400">
  <name>Peak:White Rocks</name>
  <cmt>Peak:White Rocks</cmt>
  <desc>Peak:White Rocks</desc>
</wpt>
<wpt lat="36.667030200" lon="-83.442964400">
  <name>Peak:White Rocks</name>
  <cmt>Peak:White Rocks</cmt>
  <desc>Peak:White Rocks</desc>
</wpt>
<wpt lat="36.714252800" lon="-83.432965100">
  <name>Peak:Butterfly Knob</name>
  <cmt>Peak:Butterfly Knob</cmt>
  <desc>Peak:Butterfly Knob</desc>
</wpt>
<wpt lat="36.823698200" lon="-83.427131500">
  <name>Peak:Happy Top</name>
  <cmt>Peak:Happy Top</cmt>
  <desc>Peak:Happy Top</desc>
</wpt>
<wpt lat="36.849810000" lon="-83.394629500">
  <name>Tower:WHLN-AM (Harlan)</name>
  <cmt>Tower:WHLN-AM (Harlan)</cmt>
  <desc>Tower:WHLN-AM (Harlan)</desc>
</wpt>
<wpt lat="36.800365100" lon="-83.376573600">
  <name>Peak:Fox Knob</name>
  <cmt>Peak:Fox Knob</cmt>
  <desc>Peak:Fox Knob</desc>
</wpt>
<wpt lat="36.770364800" lon="-83.361573200">
  <name>Peak:Potato Knob</name>
  <cmt>Peak:Potato Knob</cmt>
  <desc>Peak:Potato Knob</desc>
</wpt>
<wpt lat="36.867311000" lon="-83.326570200">
  <name>Tower:WFSR-AM (Harlan)</name>
  <cmt>Tower:WFSR-AM (Harlan)</cmt>
  <desc>Tower:WFSR-AM (Harlan)</desc>
</wpt>
<wpt lat="36.520364900" lon="-83.308789200">
  <name>Peak:Short Mountain</name>
  <cmt>Peak:Short Mountain</cmt>
  <desc>Peak:Short Mountain</desc>
</wpt>
<wpt lat="36.902589700" lon="-83.300179600">
  <name>Tower:WTUK-FM (Harlan)</name>
  <cmt>Tower:WTUK-FM (Harlan)</cmt>
  <desc>Tower:WTUK-FM (Harlan)</desc>
</wpt>
<wpt lat="36.787587900" lon="-83.291013700">
  <name>Peak:Grays Knob</name>
  <cmt>Peak:Grays Knob</cmt>
  <desc>Peak:Grays Knob</desc>
</wpt>
<wpt lat="36.551477100" lon="-83.234064700">
  <name>Peak:Jabez Knob</name>
  <cmt>Peak:Jabez Knob</cmt>
  <desc>Peak:Jabez Knob</desc>
</wpt>
<wpt lat="36.926479700" lon="-83.224342000">
  <name>Tower:Beschman Lookout Tower</name>
  <cmt>Tower:Beschman Lookout Tower</cmt>
  <desc>Tower:Beschman Lookout Tower</desc>
</wpt>
<wpt lat="36.610088200" lon="-83.215731100">
  <name>Peak:Phoebe Butt</name>
  <cmt>Peak:Phoebe Butt</cmt>
  <desc>Peak:Phoebe Butt</desc>
</wpt>
<wpt lat="36.739254600" lon="-83.187953200">
  <name>Peak:Notch Rock</name>
  <cmt>Peak:Notch Rock</cmt>
  <desc>Peak:Notch Rock</desc>
</wpt>
<wpt lat="36.739254600" lon="-83.186841900">
  <name>Peak:Notch Rock</name>
  <cmt>Peak:Notch Rock</cmt>
  <desc>Peak:Notch Rock</desc>
</wpt>
<wpt lat="36.786199500" lon="-83.184897100">
  <name>Peak:Sugarcamp Knob</name>
  <cmt>Peak:Sugarcamp Knob</cmt>
  <desc>Peak:Sugarcamp Knob</desc>
</wpt>
<wpt lat="36.926757500" lon="-83.183228600">
  <name>Peak:Rebels Rock</name>
  <cmt>Peak:Rebels Rock</cmt>
  <desc>Peak:Rebels Rock</desc>
</wpt>
<wpt lat="36.820644600" lon="-83.181007600">
  <name>Peak:Kitts Knob</name>
  <cmt>Peak:Kitts Knob</cmt>
  <desc>Peak:Kitts Knob</desc>
</wpt>
<wpt lat="36.741476900" lon="-83.155173700">
  <name>Peak:Yellow Rock</name>
  <cmt>Peak:Yellow Rock</cmt>
  <desc>Peak:Yellow Rock</desc>
</wpt>
<wpt lat="36.741476900" lon="-83.154062600">
  <name>Peak:Yellow Rock</name>
  <cmt>Peak:Yellow Rock</cmt>
  <desc>Peak:Yellow Rock</desc>
</wpt>
<wpt lat="36.822867000" lon="-83.147950300">
  <name>Tower:Little Black Lookout Tower</name>
  <cmt>Tower:Little Black Lookout Tower</cmt>
  <desc>Tower:Little Black Lookout Tower</desc>
</wpt>
<wpt lat="36.927590900" lon="-83.092946000">
  <name>Peak:Joe Knob</name>
  <cmt>Peak:Joe Knob</cmt>
  <desc>Peak:Joe Knob</desc>
</wpt>
<wpt lat="36.628700800" lon="-83.088225700">
  <name>Tower:Hunter Lookout Tower</name>
  <cmt>Tower:Hunter Lookout Tower</cmt>
  <desc>Tower:Hunter Lookout Tower</desc>
</wpt>
<wpt lat="36.840922900" lon="-83.074890600">
  <name>Peak:Little Black Mountain</name>
  <cmt>Peak:Little Black Mountain</cmt>
  <desc>Peak:Little Black Mountain</desc>
</wpt>
<wpt lat="36.770922000" lon="-83.050168100">
  <name>Tower:Pine Knob Lookout Tower</name>
  <cmt>Tower:Pine Knob Lookout Tower</cmt>
  <desc>Tower:Pine Knob Lookout Tower</desc>
</wpt>
<wpt lat="36.733977600" lon="-83.042668100">
  <name>Tower:WSWV-AM (Pennington Gap)</name>
  <cmt>Tower:WSWV-AM (Pennington Gap)</cmt>
  <desc>Tower:WSWV-AM (Pennington Gap)</desc>
</wpt>
<wpt lat="36.733977600" lon="-83.042668100">
  <name>Tower:WSWV-FM (Pennington Gap)</name>
  <cmt>Tower:WSWV-FM (Pennington Gap)</cmt>
  <desc>Tower:WSWV-FM (Pennington Gap)</desc>
</wpt>
<wpt lat="36.819811600" lon="-83.035444400">
  <name>Peak:Lone Mountain</name>
  <cmt>Peak:Lone Mountain</cmt>
  <desc>Peak:Lone Mountain</desc>
</wpt>
<wpt lat="36.548702700" lon="-83.034334600">
  <name>Peak:Baker Hill</name>
  <cmt>Peak:Baker Hill</cmt>
  <desc>Peak:Baker Hill</desc>
</wpt>
<wpt lat="36.982228400" lon="-83.027373700">
  <name>Peak:Hurricane Gap Mountain</name>
  <cmt>Peak:Hurricane Gap Mountain</cmt>
  <desc>Peak:Hurricane Gap Mountain</desc>
</wpt>
<wpt lat="36.756755300" lon="-83.015166600">
  <name>Tower:WSWV-AM (Pennington Gap)</name>
  <cmt>Tower:WSWV-AM (Pennington Gap)</cmt>
  <desc>Tower:WSWV-AM (Pennington Gap)</desc>
</wpt>
<wpt lat="36.973702900" lon="-82.987384400">
  <name>Tower:WCPM-AM (Cumberland)</name>
  <cmt>Tower:WCPM-AM (Cumberland)</cmt>
  <desc>Tower:WCPM-AM (Cumberland)</desc>
</wpt>
<wpt lat="36.765922600" lon="-82.986276500">
  <name>Peak:Big Hill</name>
  <cmt>Peak:Big Hill</cmt>
  <desc>Peak:Big Hill</desc>
</wpt>
<wpt lat="36.713978600" lon="-82.985443500">
  <name>Peak:Cedar Knob</name>
  <cmt>Peak:Cedar Knob</cmt>
  <desc>Peak:Cedar Knob</desc>
</wpt>
<wpt lat="36.730923600" lon="-82.959054000">
  <name>Peak:Elk Knob</name>
  <cmt>Peak:Elk Knob</cmt>
  <desc>Peak:Elk Knob</desc>
</wpt>
<wpt lat="36.964081000" lon="-82.951130000">
  <name>Museum:Kentucky Coal Mining Museum</name>
  <cmt>Museum:Kentucky Coal Mining Museum</cmt>
  <desc>Museum:Kentucky Coal Mining Museum</desc>
</wpt>
<wpt lat="36.735646100" lon="-82.949331500">
  <name>Peak:Buzzard Roost</name>
  <cmt>Peak:Buzzard Roost</cmt>
  <desc>Peak:Buzzard Roost</desc>
</wpt>
<wpt lat="36.725924900" lon="-82.920442100">
  <name>Peak:Eliza Knob</name>
  <cmt>Peak:Eliza Knob</cmt>
  <desc>Peak:Eliza Knob</desc>
</wpt>
<wpt lat="36.811758700" lon="-82.917107900">
  <name>Tower:Olinger Lookout Tower</name>
  <cmt>Tower:Olinger Lookout Tower</cmt>
  <desc>Tower:Olinger Lookout Tower</desc>
</wpt>
<wpt lat="36.670648300" lon="-82.905997400">
  <name>Peak:Pine Hill</name>
  <cmt>Peak:Pine Hill</cmt>
  <desc>Peak:Pine Hill</desc>
</wpt>
<wpt lat="36.914260200" lon="-82.893773200">
  <name>Peak:Black Mountain</name>
  <cmt>Peak:Black Mountain</cmt>
  <desc>Peak:Black Mountain</desc>
</wpt>
<wpt lat="36.887037900" lon="-82.887662300">
  <name>Peak:Potato Hill</name>
  <cmt>Peak:Potato Hill</cmt>
  <desc>Peak:Potato Hill</desc>
</wpt>
<wpt lat="36.507317400" lon="-82.884886200">
  <name>Peak:Gravelly Knobs</name>
  <cmt>Peak:Gravelly Knobs</cmt>
  <desc>Peak:Gravelly Knobs</desc>
</wpt>
<wpt lat="36.529261700" lon="-82.882663900">
  <name>Peak:Stanley Knobs</name>
  <cmt>Peak:Stanley Knobs</cmt>
  <desc>Peak:Stanley Knobs</desc>
</wpt>
<wpt lat="36.664260200" lon="-82.881552500">
  <name>Peak:Bunker Hill</name>
  <cmt>Peak:Bunker Hill</cmt>
  <desc>Peak:Bunker Hill</desc>
</wpt>
<wpt lat="36.748426000" lon="-82.879607800">
  <name>Peak:Butt of Powell Mountain</name>
  <cmt>Peak:Butt of Powell Mountain</cmt>
  <desc>Peak:Butt of Powell Mountain</desc>
</wpt>
<wpt lat="36.907871700" lon="-82.877384200">
  <name>Peak:The Doubles</name>
  <cmt>Peak:The Doubles</cmt>
  <desc>Peak:The Doubles</desc>
</wpt>
<wpt lat="36.798982100" lon="-82.873774000">
  <name>Peak:Stocker Knob</name>
  <cmt>Peak:Stocker Knob</cmt>
  <desc>Peak:Stocker Knob</desc>
</wpt>
<wpt lat="36.553150900" lon="-82.856552100">
  <name>Peak:Caney Knobs</name>
  <cmt>Peak:Caney Knobs</cmt>
  <desc>Peak:Caney Knobs</desc>
</wpt>
<wpt lat="36.497040400" lon="-82.854329700">
  <name>Peak:Tucker Knob</name>
  <cmt>Peak:Tucker Knob</cmt>
  <desc>Peak:Tucker Knob</desc>
</wpt>
<wpt lat="36.987873100" lon="-82.842105400">
  <name>Peak:Black Mountain</name>
  <cmt>Peak:Black Mountain</cmt>
  <desc>Peak:Black Mountain</desc>
</wpt>
<wpt lat="36.848150300" lon="-82.835439700">
  <name>Peak:High Butte</name>
  <cmt>Peak:High Butte</cmt>
  <desc>Peak:High Butte</desc>
</wpt>
<wpt lat="37.032318900" lon="-82.814049400">
  <name>Peak:Halls Butt</name>
  <cmt>Peak:Halls Butt</cmt>
  <desc>Peak:Halls Butt</desc>
</wpt>
<wpt lat="37.074264500" lon="-82.812104500">
  <name>Tower:WXKQ-FM (Whitesburg)</name>
  <cmt>Tower:WXKQ-FM (Whitesburg)</cmt>
  <desc>Tower:WXKQ-FM (Whitesburg)</desc>
</wpt>
<wpt lat="37.077152300" lon="-82.808077100">
  <name>Tower:Bright Tower</name>
  <cmt>Tower:Bright Tower</cmt>
  <desc>Tower:Bright Tower</desc>
</wpt>
<wpt lat="36.832873400" lon="-82.802661400">
  <name>Peak:Elk Knob</name>
  <cmt>Peak:Elk Knob</cmt>
  <desc>Peak:Elk Knob</desc>
</wpt>
<wpt lat="36.668151400" lon="-82.801550700">
  <name>Peak:Purchase Knob</name>
  <cmt>Peak:Purchase Knob</cmt>
  <desc>Peak:Purchase Knob</desc>
</wpt>
<wpt lat="36.639540500" lon="-82.798772900">
  <name>Peak:Sols Knob</name>
  <cmt>Peak:Sols Knob</cmt>
  <desc>Peak:Sols Knob</desc>
</wpt>
<wpt lat="36.760651100" lon="-82.796828200">
  <name>Peak:Cliff Mountain</name>
  <cmt>Peak:Cliff Mountain</cmt>
  <desc>Peak:Cliff Mountain</desc>
</wpt>
<wpt lat="36.708429200" lon="-82.791550500">
  <name>Tower:WDUF-AM (Duffield)</name>
  <cmt>Tower:WDUF-AM (Duffield)</cmt>
  <desc>Tower:WDUF-AM (Duffield)</desc>
</wpt>
<wpt lat="36.775929000" lon="-82.790994700">
  <name>Peak:Bowling Knob</name>
  <cmt>Peak:Bowling Knob</cmt>
  <desc>Peak:Bowling Knob</desc>
</wpt>
<wpt lat="37.134544500" lon="-82.768770000">
  <name>Tower:WTCW-AM (Whitesburg)</name>
  <cmt>Tower:WTCW-AM (Whitesburg)</cmt>
  <desc>Tower:WTCW-AM (Whitesburg)</desc>
</wpt>
<wpt lat="37.101034100" lon="-82.759831000">
  <name>Peak:High Rock</name>
  <cmt>Peak:High Rock</cmt>
  <desc>Peak:High Rock</desc>
</wpt>
<wpt lat="36.520931200" lon="-82.748216000">
  <name>Tower:WMCH-AM (Church Hill)</name>
  <cmt>Tower:WMCH-AM (Church Hill)</cmt>
  <desc>Tower:WMCH-AM (Church Hill)</desc>
</wpt>
<wpt lat="36.666764100" lon="-82.745716000">
  <name>Peak:Bald Knob</name>
  <cmt>Peak:Bald Knob</cmt>
  <desc>Peak:Bald Knob</desc>
</wpt>
<wpt lat="36.897041800" lon="-82.738493500">
  <name>Tower:Stonega Lookout Tower</name>
  <cmt>Tower:Stonega Lookout Tower</cmt>
  <desc>Tower:Stonega Lookout Tower</desc>
</wpt>
<wpt lat="37.110655800" lon="-82.738214200">
  <name>Tower:WIFX-FM (Jenkins)</name>
  <cmt>Tower:WIFX-FM (Jenkins)</cmt>
  <desc>Tower:WIFX-FM (Jenkins)</desc>
</wpt>
<wpt lat="37.110655800" lon="-82.737380800">
  <name>Tower:WMMT-FM (Whitesburg)</name>
  <cmt>Tower:WMMT-FM (Whitesburg)</cmt>
  <desc>Tower:WMMT-FM (Whitesburg)</desc>
</wpt>
<wpt lat="36.840652900" lon="-82.737104600">
  <name>Tower:WAXM-FM (Big Stone Gap)</name>
  <cmt>Tower:WAXM-FM (Big Stone Gap)</cmt>
  <desc>Tower:WAXM-FM (Big Stone Gap)</desc>
</wpt>
<wpt lat="36.840652900" lon="-82.737104600">
  <name>Tower:WLSD-AM (Big Stone Gap)</name>
  <cmt>Tower:WLSD-AM (Big Stone Gap)</cmt>
  <desc>Tower:WLSD-AM (Big Stone Gap)</desc>
</wpt>
<wpt lat="36.842875200" lon="-82.729882200">
  <name>Peak:Morris Butt</name>
  <cmt>Peak:Morris Butt</cmt>
  <desc>Peak:Morris Butt</desc>
</wpt>
<wpt lat="37.198436100" lon="-82.711546000">
  <name>Tower:WNKY-AM (Neon)</name>
  <cmt>Tower:WNKY-AM (Neon)</cmt>
  <desc>Tower:WNKY-AM (Neon)</desc>
</wpt>
<wpt lat="37.242144900" lon="-82.708943000">
  <name>Peak:Boone Mountain</name>
  <cmt>Peak:Boone Mountain</cmt>
  <desc>Peak:Boone Mountain</desc>
</wpt>
<wpt lat="36.908709200" lon="-82.703492500">
  <name>Peak:Little Stone Mountain</name>
  <cmt>Peak:Little Stone Mountain</cmt>
  <desc>Peak:Little Stone Mountain</desc>
</wpt>
<wpt lat="37.242470800" lon="-82.700417800">
  <name>Peak:Gamblers Rock</name>
  <cmt>Peak:Gamblers Rock</cmt>
  <desc>Peak:Gamblers Rock</desc>
</wpt>
<wpt lat="37.242029000" lon="-82.698675600">
  <name>Peak:Gamblers Rock</name>
  <cmt>Peak:Gamblers Rock</cmt>
  <desc>Peak:Gamblers Rock</desc>
</wpt>
<wpt lat="36.486765900" lon="-82.691824000">
  <name>Peak:Canebrake Mountain</name>
  <cmt>Peak:Canebrake Mountain</cmt>
  <desc>Peak:Canebrake Mountain</desc>
</wpt>
<wpt lat="37.206338900" lon="-82.690233400">
  <name>Peak:Bandmill Hill</name>
  <cmt>Peak:Bandmill Hill</cmt>
  <desc>Peak:Bandmill Hill</desc>
</wpt>
<wpt lat="37.243670800" lon="-82.689232300">
  <name>Peak:Boone Mountain</name>
  <cmt>Peak:Boone Mountain</cmt>
  <desc>Peak:Boone Mountain</desc>
</wpt>
<wpt lat="36.832598000" lon="-82.686825400">
  <name>Peak:Little Mountain</name>
  <cmt>Peak:Little Mountain</cmt>
  <desc>Peak:Little Mountain</desc>
</wpt>
<wpt lat="36.852042600" lon="-82.681547500">
  <name>Peak:Huff Rock</name>
  <cmt>Peak:Huff Rock</cmt>
  <desc>Peak:Huff Rock</desc>
</wpt>
<wpt lat="37.262326500" lon="-82.680711700">
  <name>Peak:Potatoe Knob</name>
  <cmt>Peak:Potatoe Knob</cmt>
  <desc>Peak:Potatoe Knob</desc>
</wpt>
<wpt lat="37.053990000" lon="-82.642379100">
  <name>Tower:Buck Knob Lookout</name>
  <cmt>Tower:Buck Knob Lookout</cmt>
  <desc>Tower:Buck Knob Lookout</desc>
</wpt>
<wpt lat="37.052878900" lon="-82.641823500">
  <name>Peak:Buck Knob</name>
  <cmt>Peak:Buck Knob</cmt>
  <desc>Peak:Buck Knob</desc>
</wpt>
<wpt lat="36.558988300" lon="-82.640711200">
  <name>Peak:Rocky Hill</name>
  <cmt>Peak:Rocky Hill</cmt>
  <desc>Peak:Rocky Hill</desc>
</wpt>
<wpt lat="36.509544200" lon="-82.640433000">
  <name>Peak:Holston River Mountain</name>
  <cmt>Peak:Holston River Mountain</cmt>
  <desc>Peak:Holston River Mountain</desc>
</wpt>
<wpt lat="36.880654800" lon="-82.632935000">
  <name>Peak:Little Mountain</name>
  <cmt>Peak:Little Mountain</cmt>
  <desc>Peak:Little Mountain</desc>
</wpt>
<wpt lat="37.152047800" lon="-82.632378300">
  <name>Tower:WDXC-FM (Pound)</name>
  <cmt>Tower:WDXC-FM (Pound)</cmt>
  <desc>Tower:WDXC-FM (Pound)</desc>
</wpt>
<wpt lat="36.892599300" lon="-82.629601500">
  <name>Peak:High Knob</name>
  <cmt>Peak:High Knob</cmt>
  <desc>Peak:High Knob</desc>
</wpt>
<wpt lat="36.892877100" lon="-82.629323700">
  <name>Tower:High Knob Lookout Tower</name>
  <cmt>Tower:High Knob Lookout Tower</cmt>
  <desc>Tower:High Knob Lookout Tower</desc>
</wpt>
<wpt lat="36.503155600" lon="-82.628487800">
  <name>Peak:Cherry Knobs</name>
  <cmt>Peak:Cherry Knobs</cmt>
  <desc>Peak:Cherry Knobs</desc>
</wpt>
<wpt lat="36.515377800" lon="-82.623765500">
  <name>Peak:High Point</name>
  <cmt>Peak:High Point</cmt>
  <desc>Peak:High Point</desc>
</wpt>
<wpt lat="36.515377800" lon="-82.623765500">
  <name>Tower:Garden Mountain Lookout Tower</name>
  <cmt>Tower:Garden Mountain Lookout Tower</cmt>
  <desc>Tower:Garden Mountain Lookout Tower</desc>
</wpt>
<wpt lat="36.897877300" lon="-82.622656900">
  <name>Tower:WSBN-TV (Norton)</name>
  <cmt>Tower:WSBN-TV (Norton)</cmt>
  <desc>Tower:WSBN-TV (Norton)</desc>
</wpt>
<wpt lat="36.923433100" lon="-82.616267700">
  <name>Peak:Pickem Mountain</name>
  <cmt>Peak:Pickem Mountain</cmt>
  <desc>Peak:Pickem Mountain</desc>
</wpt>
<wpt lat="36.881210600" lon="-82.615434500">
  <name>Peak:Camp Rock</name>
  <cmt>Peak:Camp Rock</cmt>
  <desc>Peak:Camp Rock</desc>
</wpt>
<wpt lat="36.892877500" lon="-82.607100800">
  <name>Peak:Eagle Knob</name>
  <cmt>Peak:Eagle Knob</cmt>
  <desc>Peak:Eagle Knob</desc>
</wpt>
<wpt lat="36.812321300" lon="-82.595434100">
  <name>Tower:Buckner Ridge Lookout Tower</name>
  <cmt>Tower:Buckner Ridge Lookout Tower</cmt>
  <desc>Tower:Buckner Ridge Lookout Tower</desc>
</wpt>
<wpt lat="36.858432900" lon="-82.593211600">
  <name>Peak:Chimney Rock</name>
  <cmt>Peak:Chimney Rock</cmt>
  <desc>Peak:Chimney Rock</desc>
</wpt>
<wpt lat="36.966211900" lon="-82.587933500">
  <name>Tower:WNVA-FM (Norton)</name>
  <cmt>Tower:WNVA-FM (Norton)</cmt>
  <desc>Tower:WNVA-FM (Norton)</desc>
</wpt>
<wpt lat="36.526767200" lon="-82.587097200">
  <name>Tower:WTFM-FM (Kingsport)</name>
  <cmt>Tower:WTFM-FM (Kingsport)</cmt>
  <desc>Tower:WTFM-FM (Kingsport)</desc>
</wpt>
<wpt lat="36.527044900" lon="-82.586541700">
  <name>Tower:WCSK-FM (Kingsport)</name>
  <cmt>Tower:WCSK-FM (Kingsport)</cmt>
  <desc>Tower:WCSK-FM (Kingsport)</desc>
</wpt>
<wpt lat="36.966212000" lon="-82.586544500">
  <name>Tower:WNVA-AM (Norton)</name>
  <cmt>Tower:WNVA-AM (Norton)</cmt>
  <desc>Tower:WNVA-AM (Norton)</desc>
</wpt>
<wpt lat="36.633155300" lon="-82.582098700">
  <name>Tower:WGAT-AM (Gate City)</name>
  <cmt>Tower:WGAT-AM (Gate City)</cmt>
  <desc>Tower:WGAT-AM (Gate City)</desc>
</wpt>
<wpt lat="36.855933100" lon="-82.577377900">
  <name>Peak:Big Flat Top</name>
  <cmt>Peak:Big Flat Top</cmt>
  <desc>Peak:Big Flat Top</desc>
</wpt>
<wpt lat="37.070658800" lon="-82.564877000">
  <name>Peak:Bold Camp Mountain</name>
  <cmt>Peak:Bold Camp Mountain</cmt>
  <desc>Peak:Bold Camp Mountain</desc>
</wpt>
<wpt lat="37.193439100" lon="-82.564321300">
  <name>Peak:The Doubles</name>
  <cmt>Peak:The Doubles</cmt>
  <desc>Peak:The Doubles</desc>
</wpt>
<wpt lat="36.880100400" lon="-82.560155100">
  <name>Peak:Brushy Knob</name>
  <cmt>Peak:Brushy Knob</cmt>
  <desc>Peak:Brushy Knob</desc>
</wpt>
<wpt lat="36.566489600" lon="-82.555985300">
  <name>Tower:WKIN-AM (Kingsport)</name>
  <cmt>Tower:WKIN-AM (Kingsport)</cmt>
  <desc>Tower:WKIN-AM (Kingsport)</desc>
</wpt>
<wpt lat="36.878433800" lon="-82.550154900">
  <name>Peak:Black Hill</name>
  <cmt>Peak:Black Hill</cmt>
  <desc>Peak:Black Hill</desc>
</wpt>
<wpt lat="36.892323000" lon="-82.543487900">
  <name>Peak:Robinson Knob</name>
  <cmt>Peak:Robinson Knob</cmt>
  <desc>Peak:Robinson Knob</desc>
</wpt>
<wpt lat="36.507323700" lon="-82.543205800">
  <name>Peak:Moore Hill</name>
  <cmt>Peak:Moore Hill</cmt>
  <desc>Peak:Moore Hill</desc>
</wpt>
<wpt lat="36.492323900" lon="-82.538205300">
  <name>Peak:Pine Hill</name>
  <cmt>Peak:Pine Hill</cmt>
  <desc>Peak:Pine Hill</desc>
</wpt>
<wpt lat="36.593156300" lon="-82.532095900">
  <name>Peak:Walker Mountain</name>
  <cmt>Peak:Walker Mountain</cmt>
  <desc>Peak:Walker Mountain</desc>
</wpt>
<wpt lat="36.605933900" lon="-82.531262900">
  <name>Peak:Frisby Knob</name>
  <cmt>Peak:Frisby Knob</cmt>
  <desc>Peak:Frisby Knob</desc>
</wpt>
<wpt lat="37.285384500" lon="-82.526264900">
  <name>Tower:Flatwood Lookout Tower (historical)</name>
  <cmt>Tower:Flatwood Lookout Tower (historical)</cmt>
  <desc>Tower:Flatwood Lookout Tower (historical)</desc>
</wpt>
<wpt lat="37.285106700" lon="-82.524598200">
  <name>Tower:WKPI-TV (Pikeville)</name>
  <cmt>Tower:WKPI-TV (Pikeville)</cmt>
  <desc>Tower:WKPI-TV (Pikeville)</desc>
</wpt>
<wpt lat="36.543712500" lon="-82.522372300">
  <name>Tower:WKPT-AM (Kingsport)</name>
  <cmt>Tower:WKPT-AM (Kingsport)</cmt>
  <desc>Tower:WKPT-AM (Kingsport)</desc>
</wpt>
<wpt lat="36.886490100" lon="-82.520431800">
  <name>Peak:Moore Knob</name>
  <cmt>Peak:Moore Knob</cmt>
  <desc>Peak:Moore Knob</desc>
</wpt>
<wpt lat="36.943435500" lon="-82.507097800">
  <name>Tower:Wise Mountain Lookout Tower</name>
  <cmt>Tower:Wise Mountain Lookout Tower</cmt>
  <desc>Tower:Wise Mountain Lookout Tower</desc>
</wpt>
<wpt lat="37.284774300" lon="-82.506845000">
  <name>Peak:Sheep Cliff</name>
  <cmt>Peak:Sheep Cliff</cmt>
  <desc>Peak:Sheep Cliff</desc>
</wpt>
<wpt lat="36.662322500" lon="-82.505985400">
  <name>Peak:Big Knob</name>
  <cmt>Peak:Big Knob</cmt>
  <desc>Peak:Big Knob</desc>
</wpt>
<wpt lat="36.600656700" lon="-82.502094900">
  <name>Peak:Bald Knob</name>
  <cmt>Peak:Bald Knob</cmt>
  <desc>Peak:Bald Knob</desc>
</wpt>
<wpt lat="36.945658000" lon="-82.497097400">
  <name>Tower:WZQK-FM (Coeburn)</name>
  <cmt>Tower:WZQK-FM (Coeburn)</cmt>
  <desc>Tower:WZQK-FM (Coeburn)</desc>
</wpt>
<wpt lat="36.951769300" lon="-82.496264100">
  <name>Peak:Guest Mountain</name>
  <cmt>Peak:Guest Mountain</cmt>
  <desc>Peak:Guest Mountain</desc>
</wpt>
<wpt lat="36.553435100" lon="-82.482648300">
  <name>Tower:WKIN-AM (Kingsport)</name>
  <cmt>Tower:WKIN-AM (Kingsport)</cmt>
  <desc>Tower:WKIN-AM (Kingsport)</desc>
</wpt>
<wpt lat="36.553713000" lon="-82.466536300">
  <name>Tower:WZXY-FM (Kingsport)</name>
  <cmt>Tower:WZXY-FM (Kingsport)</cmt>
  <desc>Tower:WZXY-FM (Kingsport)</desc>
</wpt>
<wpt lat="37.377882300" lon="-82.465984100">
  <name>Peak:Ripley Knob</name>
  <cmt>Peak:Ripley Knob</cmt>
  <desc>Peak:Ripley Knob</desc>
</wpt>
<wpt lat="37.148611100" lon="-82.458888900">
  <name>Museum:Ralph Stanley Museum and Traditional Mountain Music Center</name>
  <cmt>Museum:Ralph Stanley Museum and Traditional Mountain Music Center</cmt>
  <desc>Museum:Ralph Stanley Museum and Traditional Mountain Music Center</desc>
</wpt>
<wpt lat="37.135384200" lon="-82.458206800">
  <name>Tower:Keel Lookout Tower</name>
  <cmt>Tower:Keel Lookout Tower</cmt>
  <desc>Tower:Keel Lookout Tower</desc>
</wpt>
<wpt lat="36.522324600" lon="-82.424033300">
  <name>Tower:WGOC-AM (Kingsport)</name>
  <cmt>Tower:WGOC-AM (Kingsport)</cmt>
  <desc>Tower:WGOC-AM (Kingsport)</desc>
</wpt>
<wpt lat="36.866769200" lon="-82.415982000">
  <name>Peak:Bald Rock</name>
  <cmt>Peak:Bald Rock</cmt>
  <desc>Peak:Bald Rock</desc>
</wpt>
<wpt lat="36.598713200" lon="-82.410700800">
  <name>Peak:Browder Mountain</name>
  <cmt>Peak:Browder Mountain</cmt>
  <desc>Peak:Browder Mountain</desc>
</wpt>
<wpt lat="37.145107200" lon="-82.389314600">
  <name>Tower:WDIC-AM (Clinchco)</name>
  <cmt>Tower:WDIC-AM (Clinchco)</cmt>
  <desc>Tower:WDIC-AM (Clinchco)</desc>
</wpt>
<wpt lat="37.145385000" lon="-82.387092300">
  <name>Tower:WOIC Radio Tower (Tazewell)</name>
  <cmt>Tower:WOIC Radio Tower (Tazewell)</cmt>
  <desc>Tower:WOIC Radio Tower (Tazewell)</desc>
</wpt>
<wpt lat="37.260109000" lon="-82.383759300">
  <name>Peak:Skeet Rock Knob</name>
  <cmt>Peak:Skeet Rock Knob</cmt>
  <desc>Peak:Skeet Rock Knob</desc>
</wpt>
<wpt lat="37.260386800" lon="-82.383481500">
  <name>Peak:Skeet Rock Knob</name>
  <cmt>Peak:Skeet Rock Knob</cmt>
  <desc>Peak:Skeet Rock Knob</desc>
</wpt>
<wpt lat="36.641491100" lon="-82.381811100">
  <name>Peak:Miller Knob</name>
  <cmt>Peak:Miller Knob</cmt>
  <desc>Peak:Miller Knob</desc>
</wpt>
<wpt lat="36.943437100" lon="-82.378757700">
  <name>Tower:Bull Hill Lookout Tower</name>
  <cmt>Tower:Bull Hill Lookout Tower</cmt>
  <desc>Tower:Bull Hill Lookout Tower</desc>
</wpt>
<wpt lat="37.067883700" lon="-82.369313200">
  <name>Peak:Pilot Knob</name>
  <cmt>Peak:Pilot Knob</cmt>
  <desc>Peak:Pilot Knob</desc>
</wpt>
<wpt lat="37.275942100" lon="-82.365147200">
  <name>Peak:Blue Head Rock</name>
  <cmt>Peak:Blue Head Rock</cmt>
  <desc>Peak:Blue Head Rock</desc>
</wpt>
<wpt lat="37.273055100" lon="-82.364226200">
  <name>Peak:Blue Head Knob</name>
  <cmt>Peak:Blue Head Knob</cmt>
  <desc>Peak:Blue Head Knob</desc>
</wpt>
<wpt lat="37.212053200" lon="-82.360146900">
  <name>Tower:WDIC-FM (Clinchco)</name>
  <cmt>Tower:WDIC-FM (Clinchco)</cmt>
  <desc>Tower:WDIC-FM (Clinchco)</desc>
</wpt>
<wpt lat="36.919548300" lon="-82.357367600">
  <name>Peak:Bull Hill</name>
  <cmt>Peak:Bull Hill</cmt>
  <desc>Peak:Bull Hill</desc>
</wpt>
<wpt lat="37.281497600" lon="-82.354591000">
  <name>Peak:Pinnacle Rock</name>
  <cmt>Peak:Pinnacle Rock</cmt>
  <desc>Peak:Pinnacle Rock</desc>
</wpt>
<wpt lat="37.271220200" lon="-82.348201900">
  <name>Peak:Skegg Knob</name>
  <cmt>Peak:Skegg Knob</cmt>
  <desc>Peak:Skegg Knob</desc>
</wpt>
<wpt lat="37.272053400" lon="-82.348201900">
  <name>Peak:Skegg Knob</name>
  <cmt>Peak:Skegg Knob</cmt>
  <desc>Peak:Skegg Knob</desc>
</wpt>
<wpt lat="36.568991800" lon="-82.338474000">
  <name>Peak:Zachs Knob</name>
  <cmt>Peak:Zachs Knob</cmt>
  <desc>Peak:Zachs Knob</desc>
</wpt>
<wpt lat="37.135663100" lon="-82.337923200">
  <name>Tower:Nealy Ridge Lookout Tower</name>
  <cmt>Tower:Nealy Ridge Lookout Tower</cmt>
  <desc>Tower:Nealy Ridge Lookout Tower</desc>
</wpt>
<wpt lat="36.530380700" lon="-82.331806200">
  <name>Peak:Graveyard Hill</name>
  <cmt>Peak:Graveyard Hill</cmt>
  <desc>Peak:Graveyard Hill</desc>
</wpt>
<wpt lat="36.870937500" lon="-82.305697900">
  <name>Tower:WSPC-AM (Saint Paul)</name>
  <cmt>Tower:WSPC-AM (Saint Paul)</cmt>
  <desc>Tower:WSPC-AM (Saint Paul)</desc>
</wpt>
<wpt lat="37.278164900" lon="-82.301810800">
  <name>Peak:The Chimney</name>
  <cmt>Peak:The Chimney</cmt>
  <desc>Peak:The Chimney</desc>
</wpt>
<wpt lat="36.532325300" lon="-82.299026800">
  <name>Peak:Ayers Knob</name>
  <cmt>Peak:Ayers Knob</cmt>
  <desc>Peak:Ayers Knob</desc>
</wpt>
<wpt lat="37.279276100" lon="-82.295699400">
  <name>Peak:The Towers</name>
  <cmt>Peak:The Towers</cmt>
  <desc>Peak:The Towers</desc>
</wpt>
<wpt lat="37.336526100" lon="-82.284957600">
  <name>Peak:Greasy Spear</name>
  <cmt>Peak:Greasy Spear</cmt>
  <desc>Peak:Greasy Spear</desc>
</wpt>
<wpt lat="37.346219100" lon="-82.284865000">
  <name>Peak:Beaver Knob</name>
  <cmt>Peak:Beaver Knob</cmt>
  <desc>Peak:Beaver Knob</desc>
</wpt>
<wpt lat="36.725659400" lon="-82.281529000">
  <name>Peak:Bridge Hill</name>
  <cmt>Peak:Bridge Hill</cmt>
  <desc>Peak:Bridge Hill</desc>
</wpt>
<wpt lat="37.368718700" lon="-82.276253400">
  <name>Peak:Card Mountain</name>
  <cmt>Peak:Card Mountain</cmt>
  <desc>Peak:Card Mountain</desc>
</wpt>
<wpt lat="36.611214600" lon="-82.273748900">
  <name>Tower:WBCV-AM (Bristol)</name>
  <cmt>Tower:WBCV-AM (Bristol)</cmt>
  <desc>Tower:WBCV-AM (Bristol)</desc>
</wpt>
<wpt lat="36.617048000" lon="-82.273471100">
  <name>Peak:Walker Mountain</name>
  <cmt>Peak:Walker Mountain</cmt>
  <desc>Peak:Walker Mountain</desc>
</wpt>
<wpt lat="37.237887900" lon="-82.268753800">
  <name>Tower:Bartlick Lookout Tower</name>
  <cmt>Tower:Bartlick Lookout Tower</cmt>
  <desc>Tower:Bartlick Lookout Tower</desc>
</wpt>
<wpt lat="36.492603400" lon="-82.264857700">
  <name>Peak:Hamilton Hill</name>
  <cmt>Peak:Hamilton Hill</cmt>
  <desc>Peak:Hamilton Hill</desc>
</wpt>
<wpt lat="37.453439300" lon="-82.263752200">
  <name>Peak:Hunt Knob</name>
  <cmt>Peak:Hunt Knob</cmt>
  <desc>Peak:Hunt Knob</desc>
</wpt>
<wpt lat="36.812882400" lon="-82.263195200">
  <name>Peak:Duff Knob</name>
  <cmt>Peak:Duff Knob</cmt>
  <desc>Peak:Duff Knob</desc>
</wpt>
<wpt lat="36.652603900" lon="-82.260971000">
  <name>Peak:Dickey Mountain</name>
  <cmt>Peak:Dickey Mountain</cmt>
  <desc>Peak:Dickey Mountain</desc>
</wpt>
<wpt lat="36.995105700" lon="-82.245139700">
  <name>Tower:Hazel Mountain Lookout Tower</name>
  <cmt>Tower:Hazel Mountain Lookout Tower</cmt>
  <desc>Tower:Hazel Mountain Lookout Tower</desc>
</wpt>
<wpt lat="36.561492700" lon="-82.243190800">
  <name>Peak:Beaver Creek Knobs</name>
  <cmt>Peak:Beaver Creek Knobs</cmt>
  <desc>Peak:Beaver Creek Knobs</desc>
</wpt>
<wpt lat="37.501216700" lon="-82.227638600">
  <name>Peak:Dicks Knob</name>
  <cmt>Peak:Dicks Knob</cmt>
  <desc>Peak:Dicks Knob</desc>
</wpt>
<wpt lat="37.501093000" lon="-82.227381800">
  <name>Tower:Dicks Knowl</name>
  <cmt>Tower:Dicks Knowl</cmt>
  <desc>Tower:Dicks Knowl</desc>
</wpt>
<wpt lat="36.922328300" lon="-82.209859700">
  <name>Peak:Tunnel Hill</name>
  <cmt>Peak:Tunnel Hill</cmt>
  <desc>Peak:Tunnel Hill</desc>
</wpt>
<wpt lat="36.630940000" lon="-82.164577200">
  <name>Tower:WZAP-AM (Bristol)</name>
  <cmt>Tower:WZAP-AM (Bristol)</cmt>
  <desc>Tower:WZAP-AM (Bristol)</desc>
</wpt>
<wpt lat="37.421497000" lon="-82.163190600">
  <name>Peak:Hylton Knob</name>
  <cmt>Peak:Hylton Knob</cmt>
  <desc>Peak:Hylton Knob</desc>
</wpt>
<wpt lat="36.595940200" lon="-82.161521000">
  <name>Tower:WOPI</name>
  <cmt>Tower:WOPI</cmt>
  <desc>Tower:WOPI</desc>
</wpt>
<wpt lat="36.595940200" lon="-82.161521000">
  <name>Tower:WOPI-AM (Bristol)</name>
  <cmt>Tower:WOPI-AM (Bristol)</cmt>
  <desc>Tower:WOPI-AM (Bristol)</desc>
</wpt>
<wpt lat="36.608440200" lon="-82.159854400">
  <name>Tower:WFHG-AM (Bristol)</name>
  <cmt>Tower:WFHG-AM (Bristol)</cmt>
  <desc>Tower:WFHG-AM (Bristol)</desc>
</wpt>
<wpt lat="36.566218200" lon="-82.158186900">
  <name>Tower:WBCV-AM (Bristol)</name>
  <cmt>Tower:WBCV-AM (Bristol)</cmt>
  <desc>Tower:WBCV-AM (Bristol)</desc>
</wpt>
<wpt lat="36.610662600" lon="-82.156243200">
  <name>Tower:WFHG</name>
  <cmt>Tower:WFHG</cmt>
  <desc>Tower:WFHG</desc>
</wpt>
<wpt lat="37.475385800" lon="-82.118464600">
  <name>Peak:Sulphur Knob</name>
  <cmt>Peak:Sulphur Knob</cmt>
  <desc>Peak:Sulphur Knob</desc>
</wpt>
<wpt lat="37.302332500" lon="-82.117634000">
  <name>Tower:WMJD-FM (Grundy)</name>
  <cmt>Tower:WMJD-FM (Grundy)</cmt>
  <desc>Tower:WMJD-FM (Grundy)</desc>
</wpt>
<wpt lat="37.302332500" lon="-82.117634000">
  <name>Tower:WNRG-AM (Grundy)</name>
  <cmt>Tower:WNRG-AM (Grundy)</cmt>
  <desc>Tower:WNRG-AM (Grundy)</desc>
</wpt>
<wpt lat="37.454058900" lon="-82.111204100">
  <name>Peak:High Knob</name>
  <cmt>Peak:High Knob</cmt>
  <desc>Peak:High Knob</desc>
</wpt>
<wpt lat="36.921775000" lon="-82.104298700">
  <name>Tower:WLRV-AM (Lebanon)</name>
  <cmt>Tower:WLRV-AM (Lebanon)</cmt>
  <desc>Tower:WLRV-AM (Lebanon)</desc>
</wpt>
<wpt lat="36.834552800" lon="-82.090686900">
  <name>Peak:The Butt</name>
  <cmt>Peak:The Butt</cmt>
  <desc>Peak:The Butt</desc>
</wpt>
<wpt lat="36.829830800" lon="-82.079019700">
  <name>Tower:WLFG-TV (Grundy)</name>
  <cmt>Tower:WLFG-TV (Grundy)</cmt>
  <desc>Tower:WLFG-TV (Grundy)</desc>
</wpt>
<wpt lat="36.510666400" lon="-82.073182000">
  <name>Tower:Big Creek Lookout Tower (historical)</name>
  <cmt>Tower:Big Creek Lookout Tower (historical)</cmt>
  <desc>Tower:Big Creek Lookout Tower (historical)</desc>
</wpt>
<wpt lat="36.607610100" lon="-82.067072300">
  <name>Peak:Mock Knob</name>
  <cmt>Peak:Mock Knob</cmt>
  <desc>Peak:Mock Knob</desc>
</wpt>
<wpt lat="36.523167000" lon="-82.056237000">
  <name>Peak:Little Oak Mountain</name>
  <cmt>Peak:Little Oak Mountain</cmt>
  <desc>Peak:Little Oak Mountain</desc>
</wpt>
<wpt lat="36.508445100" lon="-82.050958700">
  <name>Peak:Big Oak Mountain</name>
  <cmt>Peak:Big Oak Mountain</cmt>
  <desc>Peak:Big Oak Mountain</desc>
</wpt>
<wpt lat="36.702887500" lon="-82.049017600">
  <name>Peak:Ratcliff Knob</name>
  <cmt>Peak:Ratcliff Knob</cmt>
  <desc>Peak:Ratcliff Knob</desc>
</wpt>
<wpt lat="36.539000600" lon="-82.046236800">
  <name>Peak:Grandfather Knob</name>
  <cmt>Peak:Grandfather Knob</cmt>
  <desc>Peak:Grandfather Knob</desc>
</wpt>
<wpt lat="36.850109400" lon="-82.041517900">
  <name>Peak:Brumley Mountain</name>
  <cmt>Peak:Brumley Mountain</cmt>
  <desc>Peak:Brumley Mountain</desc>
</wpt>
<wpt lat="37.200111000" lon="-82.039574700">
  <name>Peak:Baldwin Mountain</name>
  <cmt>Peak:Baldwin Mountain</cmt>
  <desc>Peak:Baldwin Mountain</desc>
</wpt>
<wpt lat="36.574555900" lon="-82.039014900">
  <name>Peak:Observation Knob</name>
  <cmt>Peak:Observation Knob</cmt>
  <desc>Peak:Observation Knob</desc>
</wpt>
<wpt lat="36.865942900" lon="-82.037351000">
  <name>Peak:Turkey Knob</name>
  <cmt>Peak:Turkey Knob</cmt>
  <desc>Peak:Turkey Knob</desc>
</wpt>
<wpt lat="37.052610100" lon="-82.035684400">
  <name>Peak:Big A Mountain</name>
  <cmt>Peak:Big A Mountain</cmt>
  <desc>Peak:Big A Mountain</desc>
</wpt>
<wpt lat="36.673166800" lon="-82.010404200">
  <name>Peak:Puckett Knob</name>
  <cmt>Peak:Puckett Knob</cmt>
  <desc>Peak:Puckett Knob</desc>
</wpt>
<wpt lat="37.272055700" lon="-82.009573000">
  <name>Peak:Rowe Mountain</name>
  <cmt>Peak:Rowe Mountain</cmt>
  <desc>Peak:Rowe Mountain</desc>
</wpt>
<wpt lat="36.597612500" lon="-82.004291400">
  <name>Peak:Taylor Knob</name>
  <cmt>Peak:Taylor Knob</cmt>
  <desc>Peak:Taylor Knob</desc>
</wpt>
<wpt lat="36.677611300" lon="-82.002626100">
  <name>Peak:Willoughby Hill</name>
  <cmt>Peak:Willoughby Hill</cmt>
  <desc>Peak:Willoughby Hill</desc>
</wpt>
<wpt lat="36.943443600" lon="-82.002626800">
  <name>Peak:Little Rock</name>
  <cmt>Peak:Little Rock</cmt>
  <desc>Peak:Little Rock</desc>
</wpt>
<wpt lat="37.104555400" lon="-81.987904500">
  <name>Peak:Fuller Mountain</name>
  <cmt>Peak:Fuller Mountain</cmt>
  <desc>Peak:Fuller Mountain</desc>
</wpt>
<wpt lat="37.601774900" lon="-81.987622400">
  <name>Peak:Glen Alum Mountain</name>
  <cmt>Peak:Glen Alum Mountain</cmt>
  <desc>Peak:Glen Alum Mountain</desc>
</wpt>
<wpt lat="36.508447600" lon="-81.984011400">
  <name>Peak:Rich Knob</name>
  <cmt>Peak:Rich Knob</cmt>
  <desc>Peak:Rich Knob</desc>
</wpt>
<wpt lat="36.878444000" lon="-81.980681800">
  <name>Peak:Potato Hill Knob</name>
  <cmt>Peak:Potato Hill Knob</cmt>
  <desc>Peak:Potato Hill Knob</desc>
</wpt>
<wpt lat="36.512058800" lon="-81.979289000">
  <name>Peak:Locust Knob</name>
  <cmt>Peak:Locust Knob</cmt>
  <desc>Peak:Locust Knob</desc>
</wpt>
<wpt lat="36.511781100" lon="-81.979011300">
  <name>Peak:Locust Knob</name>
  <cmt>Peak:Locust Knob</cmt>
  <desc>Peak:Locust Knob</desc>
</wpt>
<wpt lat="36.871499600" lon="-81.977904000">
  <name>Peak:Middle Knob</name>
  <cmt>Peak:Middle Knob</cmt>
  <desc>Peak:Middle Knob</desc>
</wpt>
<wpt lat="36.953444000" lon="-81.977903600">
  <name>Peak:Smith Knob</name>
  <cmt>Peak:Smith Knob</cmt>
  <desc>Peak:Smith Knob</desc>
</wpt>
<wpt lat="36.540114000" lon="-81.977067300">
  <name>Peak:Delaney Mountain</name>
  <cmt>Peak:Delaney Mountain</cmt>
  <desc>Peak:Delaney Mountain</desc>
</wpt>
<wpt lat="36.540669600" lon="-81.976789500">
  <name>Peak:Delaney Mountain</name>
  <cmt>Peak:Delaney Mountain</cmt>
  <desc>Peak:Delaney Mountain</desc>
</wpt>
<wpt lat="36.960388700" lon="-81.970958800">
  <name>Peak:River Mountain</name>
  <cmt>Peak:River Mountain</cmt>
  <desc>Peak:River Mountain</desc>
</wpt>
<wpt lat="36.489837300" lon="-81.970121700">
  <name>Peak:Cross Mountain</name>
  <cmt>Peak:Cross Mountain</cmt>
  <desc>Peak:Cross Mountain</desc>
</wpt>
<wpt lat="37.638441100" lon="-81.965955000">
  <name>Peak:Coon Knob</name>
  <cmt>Peak:Coon Knob</cmt>
  <desc>Peak:Coon Knob</desc>
</wpt>
<wpt lat="36.967055400" lon="-81.963458500">
  <name>Peak:The Doubles</name>
  <cmt>Peak:The Doubles</cmt>
  <desc>Peak:The Doubles</desc>
</wpt>
<wpt lat="36.554836400" lon="-81.954011300">
  <name>Peak:Pine Mountain</name>
  <cmt>Peak:Pine Mountain</cmt>
  <desc>Peak:Pine Mountain</desc>
</wpt>
<wpt lat="36.555947500" lon="-81.951233400">
  <name>Peak:Pine Mountain</name>
  <cmt>Peak:Pine Mountain</cmt>
  <desc>Peak:Pine Mountain</desc>
</wpt>
<wpt lat="36.718722700" lon="-81.948458800">
  <name>Tower:WABN-FM (Abingdon)</name>
  <cmt>Tower:WABN-FM (Abingdon)</cmt>
  <desc>Tower:WABN-FM (Abingdon)</desc>
</wpt>
<wpt lat="36.718722700" lon="-81.948458800">
  <name>Tower:WBBI-AM (Abingdon)</name>
  <cmt>Tower:WBBI-AM (Abingdon)</cmt>
  <desc>Tower:WBBI-AM (Abingdon)</desc>
</wpt>
<wpt lat="36.566503200" lon="-81.940400000">
  <name>Peak:Little Pine Mountain</name>
  <cmt>Peak:Little Pine Mountain</cmt>
  <desc>Peak:Little Pine Mountain</desc>
</wpt>
<wpt lat="36.945944700" lon="-81.940124400">
  <name>Peak:Webb Mountain</name>
  <cmt>Peak:Webb Mountain</cmt>
  <desc>Peak:Webb Mountain</desc>
</wpt>
<wpt lat="36.589280600" lon="-81.939011500">
  <name>Peak:Little Mountain</name>
  <cmt>Peak:Little Mountain</cmt>
  <desc>Peak:Little Mountain</desc>
</wpt>
<wpt lat="36.547336900" lon="-81.937621700">
  <name>Peak:Locust Pole Knob</name>
  <cmt>Peak:Locust Pole Knob</cmt>
  <desc>Peak:Locust Pole Knob</desc>
</wpt>
<wpt lat="36.590114000" lon="-81.936233700">
  <name>Peak:Little Mountain</name>
  <cmt>Peak:Little Mountain</cmt>
  <desc>Peak:Little Mountain</desc>
</wpt>
<wpt lat="36.545392500" lon="-81.935954900">
  <name>Peak:Locust Pole Knob</name>
  <cmt>Peak:Locust Pole Knob</cmt>
  <desc>Peak:Locust Pole Knob</desc>
</wpt>
<wpt lat="37.622330600" lon="-81.932898200">
  <name>Peak:Ben Creek Mountain</name>
  <cmt>Peak:Ben Creek Mountain</cmt>
  <desc>Peak:Ben Creek Mountain</desc>
</wpt>
<wpt lat="37.232612000" lon="-81.932067900">
  <name>Peak:Keen Mountain</name>
  <cmt>Peak:Keen Mountain</cmt>
  <desc>Peak:Keen Mountain</desc>
</wpt>
<wpt lat="36.907611600" lon="-81.924846400">
  <name>Peak:The Loop</name>
  <cmt>Peak:The Loop</cmt>
  <desc>Peak:The Loop</desc>
</wpt>
<wpt lat="37.163167600" lon="-81.922623000">
  <name>Peak:Davis Mountain</name>
  <cmt>Peak:Davis Mountain</cmt>
  <desc>Peak:Davis Mountain</desc>
</wpt>
<wpt lat="36.572336800" lon="-81.920955000">
  <name>Peak:McQueen Knob</name>
  <cmt>Peak:McQueen Knob</cmt>
  <desc>Peak:McQueen Knob</desc>
</wpt>
<wpt lat="36.566781400" lon="-81.920399400">
  <name>Peak:Little Pine Mountain</name>
  <cmt>Peak:Little Pine Mountain</cmt>
  <desc>Peak:Little Pine Mountain</desc>
</wpt>
<wpt lat="36.571781300" lon="-81.920399500">
  <name>Peak:McQueen Knob</name>
  <cmt>Peak:McQueen Knob</cmt>
  <desc>Peak:McQueen Knob</desc>
</wpt>
<wpt lat="36.595114300" lon="-81.917622100">
  <name>Peak:Wheeler Spur</name>
  <cmt>Peak:Wheeler Spur</cmt>
  <desc>Peak:Wheeler Spur</desc>
</wpt>
<wpt lat="37.466221700" lon="-81.906230200">
  <name>Peak:Sheep Knob</name>
  <cmt>Peak:Sheep Knob</cmt>
  <desc>Peak:Sheep Knob</desc>
</wpt>
<wpt lat="37.238167800" lon="-81.904843700">
  <name>Peak:Pilgrim Knob</name>
  <cmt>Peak:Pilgrim Knob</cmt>
  <desc>Peak:Pilgrim Knob</desc>
</wpt>
<wpt lat="36.591503600" lon="-81.900399300">
  <name>Peak:Swanagan Mountain</name>
  <cmt>Peak:Swanagan Mountain</cmt>
  <desc>Peak:Swanagan Mountain</desc>
</wpt>
<wpt lat="36.594559000" lon="-81.899010500">
  <name>Peak:Swanagan Mountain</name>
  <cmt>Peak:Swanagan Mountain</cmt>
  <desc>Peak:Swanagan Mountain</desc>
</wpt>
<wpt lat="36.882056400" lon="-81.898734600">
  <name>Peak:Poor Mountain</name>
  <cmt>Peak:Poor Mountain</cmt>
  <desc>Peak:Poor Mountain</desc>
</wpt>
<wpt lat="37.151223300" lon="-81.898732600">
  <name>Tower:WRIC-FM (Richlands)</name>
  <cmt>Tower:WRIC-FM (Richlands)</cmt>
  <desc>Tower:WRIC-FM (Richlands)</desc>
</wpt>
<wpt lat="37.066778900" lon="-81.898177400">
  <name>Peak:Stone Mountain</name>
  <cmt>Peak:Stone Mountain</cmt>
  <desc>Peak:Stone Mountain</desc>
</wpt>
<wpt lat="36.587059200" lon="-81.895121300">
  <name>Peak:Harp Mountain</name>
  <cmt>Peak:Harp Mountain</cmt>
  <desc>Peak:Harp Mountain</desc>
</wpt>
<wpt lat="36.587337000" lon="-81.894843500">
  <name>Peak:Harp Mountain</name>
  <cmt>Peak:Harp Mountain</cmt>
  <desc>Peak:Harp Mountain</desc>
</wpt>
<wpt lat="37.184001200" lon="-81.894009900">
  <name>Peak:Osborne Mountain</name>
  <cmt>Peak:Osborne Mountain</cmt>
  <desc>Peak:Osborne Mountain</desc>
</wpt>
<wpt lat="37.225667900" lon="-81.893731900">
  <name>Peak:Horn Mountain</name>
  <cmt>Peak:Horn Mountain</cmt>
  <desc>Peak:Horn Mountain</desc>
</wpt>
<wpt lat="36.898445400" lon="-81.890956400">
  <name>Peak:Rich Mountain</name>
  <cmt>Peak:Rich Mountain</cmt>
  <desc>Peak:Rich Mountain</desc>
</wpt>
<wpt lat="36.936223400" lon="-81.886511400">
  <name>Peak:Beartown Mountain</name>
  <cmt>Peak:Beartown Mountain</cmt>
  <desc>Peak:Beartown Mountain</desc>
</wpt>
<wpt lat="36.502060900" lon="-81.885396900">
  <name>Peak:Grindstone Knob</name>
  <cmt>Peak:Grindstone Knob</cmt>
  <desc>Peak:Grindstone Knob</desc>
</wpt>
<wpt lat="36.999556800" lon="-81.880121500">
  <name>Peak:House and Barn Mountain</name>
  <cmt>Peak:House and Barn Mountain</cmt>
  <desc>Peak:House and Barn Mountain</desc>
</wpt>
<wpt lat="37.339000700" lon="-81.878729900">
  <name>Peak:Bradshaw Mountain</name>
  <cmt>Peak:Bradshaw Mountain</cmt>
  <desc>Peak:Bradshaw Mountain</desc>
</wpt>
<wpt lat="37.165390300" lon="-81.871786300">
  <name>Peak:Wolfpen Knob</name>
  <cmt>Peak:Wolfpen Knob</cmt>
  <desc>Peak:Wolfpen Knob</desc>
</wpt>
<wpt lat="37.271779100" lon="-81.858173300">
  <name>Peak:Compton Mountain</name>
  <cmt>Peak:Compton Mountain</cmt>
  <desc>Peak:Compton Mountain</desc>
</wpt>
<wpt lat="37.297890000" lon="-81.855117500">
  <name>Peak:Mullins Mountain</name>
  <cmt>Peak:Mullins Mountain</cmt>
  <desc>Peak:Mullins Mountain</desc>
</wpt>
<wpt lat="37.218723800" lon="-81.848450900">
  <name>Peak:Sugar Cove Mountain</name>
  <cmt>Peak:Sugar Cove Mountain</cmt>
  <desc>Peak:Sugar Cove Mountain</desc>
</wpt>
<wpt lat="36.815946100" lon="-81.845956100">
  <name>Peak:Hall Knob</name>
  <cmt>Peak:Hall Knob</cmt>
  <desc>Peak:Hall Knob</desc>
</wpt>
<wpt lat="36.803446300" lon="-81.834289300">
  <name>Peak:Bald Knob</name>
  <cmt>Peak:Bald Knob</cmt>
  <desc>Peak:Bald Knob</desc>
</wpt>
<wpt lat="36.480674100" lon="-81.828172200">
  <name>Peak:Holy Hill</name>
  <cmt>Peak:Holy Hill</cmt>
  <desc>Peak:Holy Hill</desc>
</wpt>
<wpt lat="36.964557800" lon="-81.820397300">
  <name>Peak:Bald Rock</name>
  <cmt>Peak:Bald Rock</cmt>
  <desc>Peak:Bald Rock</desc>
</wpt>
<wpt lat="37.436222600" lon="-81.817892900">
  <name>Peak:High Knob</name>
  <cmt>Peak:High Knob</cmt>
  <desc>Peak:High Knob</desc>
</wpt>
<wpt lat="36.911224500" lon="-81.817620400">
  <name>Peak:Rock House Mountain</name>
  <cmt>Peak:Rock House Mountain</cmt>
  <desc>Peak:Rock House Mountain</desc>
</wpt>
<wpt lat="36.922891200" lon="-81.816509000">
  <name>Peak:Short Mountain</name>
  <cmt>Peak:Short Mountain</cmt>
  <desc>Peak:Short Mountain</desc>
</wpt>
<wpt lat="37.426500500" lon="-81.814281500">
  <name>Peak:Pine Knob</name>
  <cmt>Peak:Pine Knob</cmt>
  <desc>Peak:Pine Knob</desc>
</wpt>
<wpt lat="36.922058000" lon="-81.806230900">
  <name>Peak:Redrock Mountain</name>
  <cmt>Peak:Redrock Mountain</cmt>
  <desc>Peak:Redrock Mountain</desc>
</wpt>
<wpt lat="36.999002900" lon="-81.786784100">
  <name>Peak:Arkansas Hill</name>
  <cmt>Peak:Arkansas Hill</cmt>
  <desc>Peak:Arkansas Hill</desc>
</wpt>
<wpt lat="36.489841300" lon="-81.786504400">
  <name>Tower:WMCT-AM (Mountain City)</name>
  <cmt>Tower:WMCT-AM (Mountain City)</cmt>
  <desc>Tower:WMCT-AM (Mountain City)</desc>
</wpt>
<wpt lat="37.083724900" lon="-81.782615600">
  <name>Tower:WRIC-AM (Richlands)</name>
  <cmt>Tower:WRIC-AM (Richlands)</cmt>
  <desc>Tower:WRIC-AM (Richlands)</desc>
</wpt>
<wpt lat="36.934558500" lon="-81.778174000">
  <name>Peak:Whiterock Mountain</name>
  <cmt>Peak:Whiterock Mountain</cmt>
  <desc>Peak:Whiterock Mountain</desc>
</wpt>
<wpt lat="37.155669200" lon="-81.769557700">
  <name>Tower:WGTH-FM (Richlands)</name>
  <cmt>Tower:WGTH-FM (Richlands)</cmt>
  <desc>Tower:WGTH-FM (Richlands)</desc>
</wpt>
<wpt lat="37.084836100" lon="-81.768448100">
  <name>Tower:WYRV-AM (Cedar Bluff)</name>
  <cmt>Tower:WYRV-AM (Cedar Bluff)</cmt>
  <desc>Tower:WYRV-AM (Cedar Bluff)</desc>
</wpt>
<wpt lat="37.163724700" lon="-81.768168600">
  <name>Tower:WJHT-FM (Cedar Bluff)</name>
  <cmt>Tower:WJHT-FM (Cedar Bluff)</cmt>
  <desc>Tower:WJHT-FM (Cedar Bluff)</desc>
</wpt>
<wpt lat="36.603172600" lon="-81.765951200">
  <name>Peak:Butt Mountain</name>
  <cmt>Peak:Butt Mountain</cmt>
  <desc>Peak:Butt Mountain</desc>
</wpt>
<wpt lat="36.938447600" lon="-81.765673400">
  <name>Peak:Flattop Mountain</name>
  <cmt>Peak:Flattop Mountain</cmt>
  <desc>Peak:Flattop Mountain</desc>
</wpt>
<wpt lat="37.062058600" lon="-81.760392700">
  <name>Peak:Claypool Hill</name>
  <cmt>Peak:Claypool Hill</cmt>
  <desc>Peak:Claypool Hill</desc>
</wpt>
<wpt lat="36.489008600" lon="-81.757058900">
  <name>Peak:Forge Mountain</name>
  <cmt>Peak:Forge Mountain</cmt>
  <desc>Peak:Forge Mountain</desc>
</wpt>
<wpt lat="37.220669100" lon="-81.750666000">
  <name>Tower:Bearwallow Lookout Tower</name>
  <cmt>Tower:Bearwallow Lookout Tower</cmt>
  <desc>Tower:Bearwallow Lookout Tower</desc>
</wpt>
<wpt lat="36.664005000" lon="-81.749008100">
  <name>Peak:Clark Mountain</name>
  <cmt>Peak:Clark Mountain</cmt>
  <desc>Peak:Clark Mountain</desc>
</wpt>
<wpt lat="36.995670200" lon="-81.746227100">
  <name>Peak:Short Mountain</name>
  <cmt>Peak:Short Mountain</cmt>
  <desc>Peak:Short Mountain</desc>
</wpt>
<wpt lat="36.673171500" lon="-81.741508100">
  <name>Peak:Short Mountain</name>
  <cmt>Peak:Short Mountain</cmt>
  <desc>Peak:Short Mountain</desc>
</wpt>
<wpt lat="36.894836700" lon="-81.740118200">
  <name>Peak:Sanders Hill</name>
  <cmt>Peak:Sanders Hill</cmt>
  <desc>Peak:Sanders Hill</desc>
</wpt>
<wpt lat="37.495111700" lon="-81.737056300">
  <name>Peak:Hensley Knob</name>
  <cmt>Peak:Hensley Knob</cmt>
  <desc>Peak:Hensley Knob</desc>
</wpt>
<wpt lat="36.621506000" lon="-81.736784200">
  <name>Peak:Fork Mountain</name>
  <cmt>Peak:Fork Mountain</cmt>
  <desc>Peak:Fork Mountain</desc>
</wpt>
<wpt lat="36.590951100" lon="-81.735672100">
  <name>Peak:Fodderstack Mountain</name>
  <cmt>Peak:Fodderstack Mountain</cmt>
  <desc>Peak:Fodderstack Mountain</desc>
</wpt>
<wpt lat="36.606228600" lon="-81.732894800">
  <name>Peak:Snaggy Mountain</name>
  <cmt>Peak:Snaggy Mountain</cmt>
  <desc>Peak:Snaggy Mountain</desc>
</wpt>
<wpt lat="36.579007000" lon="-81.731782800">
  <name>Peak:Locust Knob</name>
  <cmt>Peak:Locust Knob</cmt>
  <desc>Peak:Locust Knob</desc>
</wpt>
<wpt lat="36.570673900" lon="-81.730115900">
  <name>Peak:Cabin Hill</name>
  <cmt>Peak:Cabin Hill</cmt>
  <desc>Peak:Cabin Hill</desc>
</wpt>
<wpt lat="37.433167800" lon="-81.725110900">
  <name>Tower:Olga Number 3 Lookout Tower</name>
  <cmt>Tower:Olga Number 3 Lookout Tower</cmt>
  <desc>Tower:Olga Number 3 Lookout Tower</desc>
</wpt>
<wpt lat="36.862059000" lon="-81.724563000">
  <name>Tower:WXMY-AM (Saltville)</name>
  <cmt>Tower:WXMY-AM (Saltville)</cmt>
  <desc>Tower:WXMY-AM (Saltville)</desc>
</wpt>
<wpt lat="36.835670100" lon="-81.724285800">
  <name>Peak:Bettys Knob</name>
  <cmt>Peak:Bettys Knob</cmt>
  <desc>Peak:Bettys Knob</desc>
</wpt>
<wpt lat="36.513175200" lon="-81.721780600">
  <name>Peak:Bald Knob</name>
  <cmt>Peak:Bald Knob</cmt>
  <desc>Peak:Bald Knob</desc>
</wpt>
<wpt lat="37.046781200" lon="-81.718725600">
  <name>Peak:Bald Rock</name>
  <cmt>Peak:Bald Rock</cmt>
  <desc>Peak:Bald Rock</desc>
</wpt>
<wpt lat="36.664838600" lon="-81.717618300">
  <name>Tower:Feather Camp Lookout Tower</name>
  <cmt>Tower:Feather Camp Lookout Tower</cmt>
  <desc>Tower:Feather Camp Lookout Tower</desc>
</wpt>
<wpt lat="37.044558900" lon="-81.717058900">
  <name>Peak:Paint Rock</name>
  <cmt>Peak:Paint Rock</cmt>
  <desc>Peak:Paint Rock</desc>
</wpt>
<wpt lat="36.720393100" lon="-81.710119700">
  <name>Peak:Bear Knob</name>
  <cmt>Peak:Bear Knob</cmt>
  <desc>Peak:Bear Knob</desc>
</wpt>
<wpt lat="36.545952400" lon="-81.704281000">
  <name>Peak:Winnie Knob</name>
  <cmt>Peak:Winnie Knob</cmt>
  <desc>Peak:Winnie Knob</desc>
</wpt>
<wpt lat="37.221224900" lon="-81.703721000">
  <name>Peak:Stone Steps</name>
  <cmt>Peak:Stone Steps</cmt>
  <desc>Peak:Stone Steps</desc>
</wpt>
<wpt lat="36.536230500" lon="-81.699836200">
  <name>Peak:Cut Laurel Knob</name>
  <cmt>Peak:Cut Laurel Knob</cmt>
  <desc>Peak:Cut Laurel Knob</desc>
</wpt>
<wpt lat="36.536786100" lon="-81.699280600">
  <name>Peak:Cut Laurel Knob</name>
  <cmt>Peak:Cut Laurel Knob</cmt>
  <desc>Peak:Cut Laurel Knob</desc>
</wpt>
<wpt lat="36.847059100" lon="-81.698729500">
  <name>Peak:Little Brushy Mountain</name>
  <cmt>Peak:Little Brushy Mountain</cmt>
  <desc>Peak:Little Brushy Mountain</desc>
</wpt>
<wpt lat="37.693998800" lon="-81.697890100">
  <name>Peak:Burning Rock</name>
  <cmt>Peak:Burning Rock</cmt>
  <desc>Peak:Burning Rock</desc>
</wpt>
<wpt lat="36.727337400" lon="-81.697619500">
  <name>Peak:Coe Knob</name>
  <cmt>Peak:Coe Knob</cmt>
  <desc>Peak:Coe Knob</desc>
</wpt>
<wpt lat="37.769831100" lon="-81.697057500">
  <name>Peak:Buffalo Mountain</name>
  <cmt>Peak:Buffalo Mountain</cmt>
  <desc>Peak:Buffalo Mountain</desc>
</wpt>
<wpt lat="36.474287800" lon="-81.695112300">
  <name>Peak:Catface Mountain</name>
  <cmt>Peak:Catface Mountain</cmt>
  <desc>Peak:Catface Mountain</desc>
</wpt>
<wpt lat="36.474010000" lon="-81.694834500">
  <name>Peak:Catface Mountain</name>
  <cmt>Peak:Catface Mountain</cmt>
  <desc>Peak:Catface Mountain</desc>
</wpt>
<wpt lat="36.729559700" lon="-81.690119400">
  <name>Peak:Hawthorne Knob</name>
  <cmt>Peak:Hawthorne Knob</cmt>
  <desc>Peak:Hawthorne Knob</desc>
</wpt>
<wpt lat="36.704560200" lon="-81.686507500">
  <name>Peak:Raffety Knob</name>
  <cmt>Peak:Raffety Knob</cmt>
  <desc>Peak:Raffety Knob</desc>
</wpt>
<wpt lat="36.846781500" lon="-81.686507000">
  <name>Peak:Goat Knob</name>
  <cmt>Peak:Goat Knob</cmt>
  <desc>Peak:Goat Knob</desc>
</wpt>
<wpt lat="37.381779600" lon="-81.685665000">
  <name>Tower:Olga Lookout Tower</name>
  <cmt>Tower:Olga Lookout Tower</cmt>
  <desc>Tower:Olga Lookout Tower</desc>
</wpt>
<wpt lat="36.626228700" lon="-81.684838400">
  <name>Peak:Chestnut Mountain</name>
  <cmt>Peak:Chestnut Mountain</cmt>
  <desc>Peak:Chestnut Mountain</desc>
</wpt>
<wpt lat="36.635950700" lon="-81.684283100">
  <name>Peak:Laurel Mountain</name>
  <cmt>Peak:Laurel Mountain</cmt>
  <desc>Peak:Laurel Mountain</desc>
</wpt>
<wpt lat="36.680116500" lon="-81.677339800">
  <name>Peak:Grosses Mountain</name>
  <cmt>Peak:Grosses Mountain</cmt>
  <desc>Peak:Grosses Mountain</desc>
</wpt>
<wpt lat="36.615951200" lon="-81.675948900">
  <name>Peak:McQueen Knob</name>
  <cmt>Peak:McQueen Knob</cmt>
  <desc>Peak:McQueen Knob</desc>
</wpt>
<wpt lat="37.715665700" lon="-81.666778000">
  <name>Peak:Huff Mountain</name>
  <cmt>Peak:Huff Mountain</cmt>
  <desc>Peak:Huff Mountain</desc>
</wpt>
<wpt lat="36.583452100" lon="-81.666503300">
  <name>Peak:Pond Mountain</name>
  <cmt>Peak:Pond Mountain</cmt>
  <desc>Peak:Pond Mountain</desc>
</wpt>
<wpt lat="36.693171900" lon="-81.664284200">
  <name>Peak:Little Mountain</name>
  <cmt>Peak:Little Mountain</cmt>
  <desc>Peak:Little Mountain</desc>
</wpt>
<wpt lat="36.640395300" lon="-81.664004900">
  <name>Peak:Lost Mountain</name>
  <cmt>Peak:Lost Mountain</cmt>
  <desc>Peak:Lost Mountain</desc>
</wpt>
<wpt lat="37.378724300" lon="-81.658442200">
  <name>Tower:Coalwood Lookout Tower</name>
  <cmt>Tower:Coalwood Lookout Tower</cmt>
  <desc>Tower:Coalwood Lookout Tower</desc>
</wpt>
<wpt lat="36.574841400" lon="-81.653169200">
  <name>Peak:Pond Mountain</name>
  <cmt>Peak:Pond Mountain</cmt>
  <desc>Peak:Pond Mountain</desc>
</wpt>
<wpt lat="37.073448000" lon="-81.648724100">
  <name>Peak:Paint Lick Mountain</name>
  <cmt>Peak:Paint Lick Mountain</cmt>
  <desc>Peak:Paint Lick Mountain</desc>
</wpt>
<wpt lat="37.820941900" lon="-81.647334500">
  <name>Peak:Spring Mountain</name>
  <cmt>Peak:Spring Mountain</cmt>
  <desc>Peak:Spring Mountain</desc>
</wpt>
<wpt lat="36.503454200" lon="-81.642889100">
  <name>Peak:Green Cove Mountain</name>
  <cmt>Peak:Green Cove Mountain</cmt>
  <desc>Peak:Green Cove Mountain</desc>
</wpt>
<wpt lat="36.518454000" lon="-81.634000400">
  <name>Peak:Big Spring Mountain</name>
  <cmt>Peak:Big Spring Mountain</cmt>
  <desc>Peak:Big Spring Mountain</desc>
</wpt>
<wpt lat="36.691783400" lon="-81.631227700">
  <name>Peak:Straight Mountain</name>
  <cmt>Peak:Straight Mountain</cmt>
  <desc>Peak:Straight Mountain</desc>
</wpt>
<wpt lat="37.133725700" lon="-81.628166700">
  <name>Peak:The Jumps</name>
  <cmt>Peak:The Jumps</cmt>
  <desc>Peak:The Jumps</desc>
</wpt>
<wpt lat="36.636229200" lon="-81.625670300">
  <name>Peak:Beech Mountain</name>
  <cmt>Peak:Beech Mountain</cmt>
  <desc>Peak:Beech Mountain</desc>
</wpt>
<wpt lat="36.846226300" lon="-81.622894600">
  <name>Peak:Round Top Knob</name>
  <cmt>Peak:Round Top Knob</cmt>
  <desc>Peak:Round Top Knob</desc>
</wpt>
<wpt lat="37.722332800" lon="-81.621220900">
  <name>Peak:Panther Knob</name>
  <cmt>Peak:Panther Knob</cmt>
  <desc>Peak:Panther Knob</desc>
</wpt>
<wpt lat="37.049559200" lon="-81.616779900">
  <name>Peak:Morris Knob</name>
  <cmt>Peak:Morris Knob</cmt>
  <desc>Peak:Morris Knob</desc>
</wpt>
<wpt lat="36.635118200" lon="-81.616503400">
  <name>Peak:Buzzard Rock</name>
  <cmt>Peak:Buzzard Rock</cmt>
  <desc>Peak:Buzzard Rock</desc>
</wpt>
<wpt lat="37.417057700" lon="-81.615941100">
  <name>Tower:WELC-AM (Welch)</name>
  <cmt>Tower:WELC-AM (Welch)</cmt>
  <desc>Tower:WELC-AM (Welch)</desc>
</wpt>
<wpt lat="37.417057700" lon="-81.615941100">
  <name>Tower:WELC-FM (Welch)</name>
  <cmt>Tower:WELC-FM (Welch)</cmt>
  <desc>Tower:WELC-FM (Welch)</desc>
</wpt>
<wpt lat="36.506510200" lon="-81.609276900">
  <name>Peak:Big Spring Mountain</name>
  <cmt>Peak:Big Spring Mountain</cmt>
  <desc>Peak:Big Spring Mountain</desc>
</wpt>
<wpt lat="36.638729400" lon="-81.605392000">
  <name>Peak:Whitetop Mountain</name>
  <cmt>Peak:Whitetop Mountain</cmt>
  <desc>Peak:Whitetop Mountain</desc>
</wpt>
<wpt lat="37.010948300" lon="-81.603725300">
  <name>Peak:Garrisons Knob</name>
  <cmt>Peak:Garrisons Knob</cmt>
  <desc>Peak:Garrisons Knob</desc>
</wpt>
<wpt lat="37.099837000" lon="-81.598722800">
  <name>Peak:Deskin Mountain</name>
  <cmt>Peak:Deskin Mountain</cmt>
  <desc>Peak:Deskin Mountain</desc>
</wpt>
<wpt lat="36.702339000" lon="-81.597338100">
  <name>Peak:Sharp Top</name>
  <cmt>Peak:Sharp Top</cmt>
  <desc>Peak:Sharp Top</desc>
</wpt>
<wpt lat="36.719283100" lon="-81.597060900">
  <name>Peak:High Point</name>
  <cmt>Peak:High Point</cmt>
  <desc>Peak:High Point</desc>
</wpt>
<wpt lat="37.133448100" lon="-81.595110800">
  <name>Tower:WTZE-FM (Tazewell)</name>
  <cmt>Tower:WTZE-FM (Tazewell)</cmt>
  <desc>Tower:WTZE-FM (Tazewell)</desc>
</wpt>
<wpt lat="37.430669000" lon="-81.592329300">
  <name>Tower:WXEE-AM (Welch)</name>
  <cmt>Tower:WXEE-AM (Welch)</cmt>
  <desc>Tower:WXEE-AM (Welch)</desc>
</wpt>
<wpt lat="37.067614900" lon="-81.591779100">
  <name>Peak:Chimney Rock</name>
  <cmt>Peak:Chimney Rock</cmt>
  <desc>Peak:Chimney Rock</desc>
</wpt>
<wpt lat="36.692895000" lon="-81.587615400">
  <name>Peak:Grave Mountain</name>
  <cmt>Peak:Grave Mountain</cmt>
  <desc>Peak:Grave Mountain</desc>
</wpt>
<wpt lat="37.070392700" lon="-81.587612400">
  <name>Peak:Knob Mountain</name>
  <cmt>Peak:Knob Mountain</cmt>
  <desc>Peak:Knob Mountain</desc>
</wpt>
<wpt lat="37.016781700" lon="-81.584558200">
  <name>Peak:Little Doubles</name>
  <cmt>Peak:Little Doubles</cmt>
  <desc>Peak:Little Doubles</desc>
</wpt>
<wpt lat="37.105670500" lon="-81.582333600">
  <name>Peak:Tater Knob</name>
  <cmt>Peak:Tater Knob</cmt>
  <desc>Peak:Tater Knob</desc>
</wpt>
<wpt lat="36.556231600" lon="-81.581222100">
  <name>Peak:Alley Knob</name>
  <cmt>Peak:Alley Knob</cmt>
  <desc>Peak:Alley Knob</desc>
</wpt>
<wpt lat="36.624841100" lon="-81.579279700">
  <name>Peak:Bluff Mountain</name>
  <cmt>Peak:Bluff Mountain</cmt>
  <desc>Peak:Bluff Mountain</desc>
</wpt>
<wpt lat="36.647896100" lon="-81.579280400">
  <name>Peak:Balsam Mountain</name>
  <cmt>Peak:Balsam Mountain</cmt>
  <desc>Peak:Balsam Mountain</desc>
</wpt>
<wpt lat="36.705950300" lon="-81.572893200">
  <name>Peak:Round Top</name>
  <cmt>Peak:Round Top</cmt>
  <desc>Peak:Round Top</desc>
</wpt>
<wpt lat="36.731505300" lon="-81.571782700">
  <name>Peak:Bald Knob</name>
  <cmt>Peak:Bald Knob</cmt>
  <desc>Peak:Bald Knob</desc>
</wpt>
<wpt lat="36.702894900" lon="-81.570115200">
  <name>Peak:Double Top</name>
  <cmt>Peak:Double Top</cmt>
  <desc>Peak:Double Top</desc>
</wpt>
<wpt lat="37.080115000" lon="-81.567611900">
  <name>Peak:Battle Knob</name>
  <cmt>Peak:Battle Knob</cmt>
  <desc>Peak:Battle Knob</desc>
</wpt>
<wpt lat="37.844276100" lon="-81.561498700">
  <name>Peak:Cherry Pond Mountain</name>
  <cmt>Peak:Cherry Pond Mountain</cmt>
  <desc>Peak:Cherry Pond Mountain</desc>
</wpt>
<wpt lat="37.023726200" lon="-81.561224500">
  <name>Peak:Big Doubles</name>
  <cmt>Peak:Big Doubles</cmt>
  <desc>Peak:Big Doubles</desc>
</wpt>
<wpt lat="37.105670600" lon="-81.556500000">
  <name>Peak:Gobbler Knob</name>
  <cmt>Peak:Gobbler Knob</cmt>
  <desc>Peak:Gobbler Knob</desc>
</wpt>
<wpt lat="37.133170600" lon="-81.556221400">
  <name>Peak:Hubble Hill</name>
  <cmt>Peak:Hubble Hill</cmt>
  <desc>Peak:Hubble Hill</desc>
</wpt>
<wpt lat="36.750671700" lon="-81.554838400">
  <name>Peak:Short Mountain</name>
  <cmt>Peak:Short Mountain</cmt>
  <desc>Peak:Short Mountain</desc>
</wpt>
<wpt lat="37.778722000" lon="-81.548163500">
  <name>Peak:Kopperston Mountain</name>
  <cmt>Peak:Kopperston Mountain</cmt>
  <desc>Peak:Kopperston Mountain</desc>
</wpt>
<wpt lat="36.659840600" lon="-81.544557500">
  <name>Peak:Mount Rogers</name>
  <cmt>Peak:Mount Rogers</cmt>
  <desc>Peak:Mount Rogers</desc>
</wpt>
<wpt lat="36.701784100" lon="-81.544281000">
  <name>Peak:Flat Top</name>
  <cmt>Peak:Flat Top</cmt>
  <desc>Peak:Flat Top</desc>
</wpt>
<wpt lat="36.900393400" lon="-81.542892500">
  <name>Tower:WMSY-TV (Marion)</name>
  <cmt>Tower:WMSY-TV (Marion)</cmt>
  <desc>Tower:WMSY-TV (Marion)</desc>
</wpt>
<wpt lat="36.902337800" lon="-81.542336800">
  <name>Tower:WMEV-FM (Marion)</name>
  <cmt>Tower:WMEV-FM (Marion)</cmt>
  <desc>Tower:WMEV-FM (Marion)</desc>
</wpt>
<wpt lat="37.120392900" lon="-81.542332700">
  <name>Tower:WTZE-AM (Tazewell)</name>
  <cmt>Tower:WTZE-AM (Tazewell)</cmt>
  <desc>Tower:WTZE-AM (Tazewell)</desc>
</wpt>
<wpt lat="36.902893400" lon="-81.540670100">
  <name>Tower:WOLD-FM (Marion)</name>
  <cmt>Tower:WOLD-FM (Marion)</cmt>
  <desc>Tower:WOLD-FM (Marion)</desc>
</wpt>
<wpt lat="37.589001700" lon="-81.540105800">
  <name>Tower:WWYO-AM (Pineville)</name>
  <cmt>Tower:WWYO-AM (Pineville)</cmt>
  <desc>Tower:WWYO-AM (Pineville)</desc>
</wpt>
<wpt lat="36.587342500" lon="-81.539277300">
  <name>Peak:Walnut Knob</name>
  <cmt>Peak:Walnut Knob</cmt>
  <desc>Peak:Walnut Knob</desc>
</wpt>
<wpt lat="36.704284200" lon="-81.533169700">
  <name>Peak:Hurricane Mountain</name>
  <cmt>Peak:Hurricane Mountain</cmt>
  <desc>Peak:Hurricane Mountain</desc>
</wpt>
<wpt lat="36.752060800" lon="-81.529282100">
  <name>Peak:Barton Mountain</name>
  <cmt>Peak:Barton Mountain</cmt>
  <desc>Peak:Barton Mountain</desc>
</wpt>
<wpt lat="36.774560700" lon="-81.527059700">
  <name>Peak:Rich Mountain</name>
  <cmt>Peak:Rich Mountain</cmt>
  <desc>Peak:Rich Mountain</desc>
</wpt>
<wpt lat="36.967615300" lon="-81.526780500">
  <name>Peak:Black Hill</name>
  <cmt>Peak:Black Hill</cmt>
  <desc>Peak:Black Hill</desc>
</wpt>
<wpt lat="36.721783800" lon="-81.524003400">
  <name>Peak:Seng Mountain</name>
  <cmt>Peak:Seng Mountain</cmt>
  <desc>Peak:Seng Mountain</desc>
</wpt>
<wpt lat="36.776783000" lon="-81.522615100">
  <name>Tower:Quebec Knob Lookout Tower</name>
  <cmt>Tower:Quebec Knob Lookout Tower</cmt>
  <desc>Tower:Quebec Knob Lookout Tower</desc>
</wpt>
<wpt lat="36.657063200" lon="-81.521223500">
  <name>Peak:Pine Mountain</name>
  <cmt>Peak:Pine Mountain</cmt>
  <desc>Peak:Pine Mountain</desc>
</wpt>
<wpt lat="37.452336100" lon="-81.518993700">
  <name>Peak:Belcher Mountain</name>
  <cmt>Peak:Belcher Mountain</cmt>
  <desc>Peak:Belcher Mountain</desc>
</wpt>
<wpt lat="36.789560700" lon="-81.518170400">
  <name>Peak:Pond Mountain</name>
  <cmt>Peak:Pond Mountain</cmt>
  <desc>Peak:Pond Mountain</desc>
</wpt>
<wpt lat="37.792333300" lon="-81.515384900">
  <name>Peak:Pilot Knob</name>
  <cmt>Peak:Pilot Knob</cmt>
  <desc>Peak:Pilot Knob</desc>
</wpt>
<wpt lat="36.884282500" lon="-81.509836400">
  <name>Peak:Mollys Knob</name>
  <cmt>Peak:Mollys Knob</cmt>
  <desc>Peak:Mollys Knob</desc>
</wpt>
<wpt lat="36.629564000" lon="-81.509555600">
  <name>Peak:Haw Orchard Mountain</name>
  <cmt>Peak:Haw Orchard Mountain</cmt>
  <desc>Peak:Haw Orchard Mountain</desc>
</wpt>
<wpt lat="36.822338400" lon="-81.505669900">
  <name>Peak:Staley Knob</name>
  <cmt>Peak:Staley Knob</cmt>
  <desc>Peak:Staley Knob</desc>
</wpt>
<wpt lat="36.856504900" lon="-81.505669800">
  <name>Tower:WMEV-AM (Marion)</name>
  <cmt>Tower:WMEV-AM (Marion)</cmt>
  <desc>Tower:WMEV-AM (Marion)</desc>
</wpt>
<wpt lat="37.095393100" lon="-81.499832900">
  <name>Peak:Wynne Peak</name>
  <cmt>Peak:Wynne Peak</cmt>
  <desc>Peak:Wynne Peak</desc>
</wpt>
<wpt lat="37.120948700" lon="-81.495109800">
  <name>Peak:Steel Hill</name>
  <cmt>Peak:Steel Hill</cmt>
  <desc>Peak:Steel Hill</desc>
</wpt>
<wpt lat="37.219559800" lon="-81.495107100">
  <name>Peak:Locust Knob</name>
  <cmt>Peak:Locust Knob</cmt>
  <desc>Peak:Locust Knob</desc>
</wpt>
<wpt lat="37.787611500" lon="-81.490939600">
  <name>Peak:Ivy Knob</name>
  <cmt>Peak:Ivy Knob</cmt>
  <desc>Peak:Ivy Knob</desc>
</wpt>
<wpt lat="36.984837600" lon="-81.489835100">
  <name>Peak:Goat Knob</name>
  <cmt>Peak:Goat Knob</cmt>
  <desc>Peak:Goat Knob</desc>
</wpt>
<wpt lat="37.115671000" lon="-81.488720800">
  <name>Peak:Bald Hill</name>
  <cmt>Peak:Bald Hill</cmt>
  <desc>Peak:Bald Hill</desc>
</wpt>
<wpt lat="37.893998300" lon="-81.487886500">
  <name>Peak:Squealer Knob</name>
  <cmt>Peak:Squealer Knob</cmt>
  <desc>Peak:Squealer Knob</desc>
</wpt>
<wpt lat="36.641792500" lon="-81.485782400">
  <name>Camp site:Grayson Highlands State Park Campsite</name>
  <cmt>Camp site:Grayson Highlands State Park Campsite</cmt>
  <desc>Camp site:Grayson Highlands State Park Campsite</desc>
</wpt>
<wpt lat="37.815388800" lon="-81.485106800">
  <name>Peak:Spring Mountain</name>
  <cmt>Peak:Spring Mountain</cmt>
  <desc>Peak:Spring Mountain</desc>
</wpt>
<wpt lat="36.988171100" lon="-81.482890300">
  <name>Peak:Little Brushy Mountain</name>
  <cmt>Peak:Little Brushy Mountain</cmt>
  <desc>Peak:Little Brushy Mountain</desc>
</wpt>
<wpt lat="36.735950700" lon="-81.476223800">
  <name>Peak:High Point</name>
  <cmt>Peak:High Point</cmt>
  <desc>Peak:High Point</desc>
</wpt>
<wpt lat="36.671230100" lon="-81.475666200">
  <name>Peak:Stone Mountain</name>
  <cmt>Peak:Stone Mountain</cmt>
  <desc>Peak:Stone Mountain</desc>
</wpt>
<wpt lat="37.230393400" lon="-81.474550500">
  <name>Tower:Valley Ridge Lookout Tower</name>
  <cmt>Tower:Valley Ridge Lookout Tower</cmt>
  <desc>Tower:Valley Ridge Lookout Tower</desc>
</wpt>
<wpt lat="36.997060000" lon="-81.473723100">
  <name>Peak:Steer Knob</name>
  <cmt>Peak:Steer Knob</cmt>
  <desc>Peak:Steer Knob</desc>
</wpt>
<wpt lat="36.819838900" lon="-81.469834700">
  <name>Tower:WOLD-AM (Marion)</name>
  <cmt>Tower:WOLD-AM (Marion)</cmt>
  <desc>Tower:WOLD-AM (Marion)</desc>
</wpt>
<wpt lat="36.982893500" lon="-81.466500500">
  <name>Peak:Carter Mountain</name>
  <cmt>Peak:Carter Mountain</cmt>
  <desc>Peak:Carter Mountain</desc>
</wpt>
<wpt lat="36.670674800" lon="-81.465943400">
  <name>Peak:Third Peak</name>
  <cmt>Peak:Third Peak</cmt>
  <desc>Peak:Third Peak</desc>
</wpt>
<wpt lat="36.825394500" lon="-81.463445400">
  <name>Peak:Mill Mountain</name>
  <cmt>Peak:Mill Mountain</cmt>
  <desc>Peak:Mill Mountain</desc>
</wpt>
<wpt lat="36.816505700" lon="-81.460945300">
  <name>Tower:WOLD-FM (Marion)</name>
  <cmt>Tower:WOLD-FM (Marion)</cmt>
  <desc>Tower:WOLD-FM (Marion)</desc>
</wpt>
<wpt lat="36.665675000" lon="-81.459554000">
  <name>Peak:Second Peak</name>
  <cmt>Peak:Second Peak</cmt>
  <desc>Peak:Second Peak</desc>
</wpt>
<wpt lat="37.108449000" lon="-81.456219500">
  <name>Peak:Rich Mountain</name>
  <cmt>Peak:Rich Mountain</cmt>
  <desc>Peak:Rich Mountain</desc>
</wpt>
<wpt lat="37.910942700" lon="-81.453164000">
  <name>Peak:Wriston Knob</name>
  <cmt>Peak:Wriston Knob</cmt>
  <desc>Peak:Wriston Knob</desc>
</wpt>
<wpt lat="36.656230900" lon="-81.452886700">
  <name>Peak:First Peak</name>
  <cmt>Peak:First Peak</cmt>
  <desc>Peak:First Peak</desc>
</wpt>
<wpt lat="37.633724400" lon="-81.448437300">
  <name>Peak:Hickory Knob</name>
  <cmt>Peak:Hickory Knob</cmt>
  <desc>Peak:Hickory Knob</desc>
</wpt>
<wpt lat="36.977060500" lon="-81.442332500">
  <name>Peak:Little Mountain</name>
  <cmt>Peak:Little Mountain</cmt>
  <desc>Peak:Little Mountain</desc>
</wpt>
<wpt lat="37.155115900" lon="-81.442051100">
  <name>Peak:Dial Rock</name>
  <cmt>Peak:Dial Rock</cmt>
  <desc>Peak:Dial Rock</desc>
</wpt>
<wpt lat="36.973171800" lon="-81.435387700">
  <name>Peak:Bryants Knob</name>
  <cmt>Peak:Bryants Knob</cmt>
  <desc>Peak:Bryants Knob</desc>
</wpt>
<wpt lat="37.403448200" lon="-81.435381200">
  <name>Peak:Shawnee Mountain</name>
  <cmt>Peak:Shawnee Mountain</cmt>
  <desc>Peak:Shawnee Mountain</desc>
</wpt>
<wpt lat="36.594010600" lon="-81.432605800">
  <name>Peak:Blackburn Knob</name>
  <cmt>Peak:Blackburn Knob</cmt>
  <desc>Peak:Blackburn Knob</desc>
</wpt>
<wpt lat="36.752062100" lon="-81.429554600">
  <name>Peak:Dickey Knob</name>
  <cmt>Peak:Dickey Knob</cmt>
  <desc>Peak:Dickey Knob</desc>
</wpt>
<wpt lat="37.151782700" lon="-81.429550700">
  <name>Peak:Short Mountain</name>
  <cmt>Peak:Short Mountain</cmt>
  <desc>Peak:Short Mountain</desc>
</wpt>
<wpt lat="37.889554500" lon="-81.428718700">
  <name>Peak:Pond Knob</name>
  <cmt>Peak:Pond Knob</cmt>
  <desc>Peak:Pond Knob</desc>
</wpt>
<wpt lat="36.828450500" lon="-81.425387600">
  <name>Peak:Chestnut Mountain</name>
  <cmt>Peak:Chestnut Mountain</cmt>
  <desc>Peak:Chestnut Mountain</desc>
</wpt>
<wpt lat="37.166227200" lon="-81.416772100">
  <name>Peak:East River Mountain</name>
  <cmt>Peak:East River Mountain</cmt>
  <desc>Peak:East River Mountain</desc>
</wpt>
<wpt lat="37.885388100" lon="-81.412051600">
  <name>Peak:Coal River Mountain</name>
  <cmt>Peak:Coal River Mountain</cmt>
  <desc>Peak:Coal River Mountain</desc>
</wpt>
<wpt lat="36.543734500" lon="-81.411492000">
  <name>Peak:Helton Knob</name>
  <cmt>Peak:Helton Knob</cmt>
  <desc>Peak:Helton Knob</desc>
</wpt>
<wpt lat="37.170671800" lon="-81.404271500">
  <name>Peak:Chimney Rock</name>
  <cmt>Peak:Chimney Rock</cmt>
  <desc>Peak:Chimney Rock</desc>
</wpt>
<wpt lat="36.748451400" lon="-81.403441800">
  <name>Peak:Brushy Butt</name>
  <cmt>Peak:Brushy Butt</cmt>
  <desc>Peak:Brushy Butt</desc>
</wpt>
<wpt lat="37.209005100" lon="-81.402326400">
  <name>Peak:Bell Hill</name>
  <cmt>Peak:Bell Hill</cmt>
  <desc>Peak:Bell Hill</desc>
</wpt>
<wpt lat="37.102338500" lon="-81.400661500">
  <name>Peak:Hutchinson Rock</name>
  <cmt>Peak:Hutchinson Rock</cmt>
  <desc>Peak:Hutchinson Rock</desc>
</wpt>
<wpt lat="37.014283100" lon="-81.398996500">
  <name>Peak:Lynn Camp Mountain</name>
  <cmt>Peak:Lynn Camp Mountain</cmt>
  <desc>Peak:Lynn Camp Mountain</desc>
</wpt>
<wpt lat="36.734285300" lon="-81.396774300">
  <name>Peak:Straight Mountain</name>
  <cmt>Peak:Straight Mountain</cmt>
  <desc>Peak:Straight Mountain</desc>
</wpt>
<wpt lat="37.594280700" lon="-81.396769500">
  <name>Tower:WPMW-FM (Mullens)</name>
  <cmt>Tower:WPMW-FM (Mullens)</cmt>
  <desc>Tower:WPMW-FM (Mullens)</desc>
</wpt>
<wpt lat="36.703452900" lon="-81.386772800">
  <name>Peak:Sells Knob</name>
  <cmt>Peak:Sells Knob</cmt>
  <desc>Peak:Sells Knob</desc>
</wpt>
<wpt lat="37.113727500" lon="-81.384271700">
  <name>Peak:Ghost Knob</name>
  <cmt>Peak:Ghost Knob</cmt>
  <desc>Peak:Ghost Knob</desc>
</wpt>
<wpt lat="37.908999100" lon="-81.382329400">
  <name>Peak:Boyd Branch Knob</name>
  <cmt>Peak:Boyd Branch Knob</cmt>
  <desc>Peak:Boyd Branch Knob</desc>
</wpt>
<wpt lat="36.673731600" lon="-81.377882600">
  <name>Peak:Jones Knob</name>
  <cmt>Peak:Jones Knob</cmt>
  <desc>Peak:Jones Knob</desc>
</wpt>
<wpt lat="36.706230800" lon="-81.375661100">
  <name>Peak:Upper Sharp Knob</name>
  <cmt>Peak:Upper Sharp Knob</cmt>
  <desc>Peak:Upper Sharp Knob</desc>
</wpt>
<wpt lat="36.679564900" lon="-81.370104500">
  <name>Peak:Ross Knob</name>
  <cmt>Peak:Ross Knob</cmt>
  <desc>Peak:Ross Knob</desc>
</wpt>
<wpt lat="36.831229100" lon="-81.370106400">
  <name>Peak:Locust Mountain</name>
  <cmt>Peak:Locust Mountain</cmt>
  <desc>Peak:Locust Mountain</desc>
</wpt>
<wpt lat="36.632066200" lon="-81.366214000">
  <name>Peak:Couchs Knob</name>
  <cmt>Peak:Couchs Knob</cmt>
  <desc>Peak:Couchs Knob</desc>
</wpt>
<wpt lat="37.387059900" lon="-81.365935300">
  <name>Peak:Johns Knob</name>
  <cmt>Peak:Johns Knob</cmt>
  <desc>Peak:Johns Knob</desc>
</wpt>
<wpt lat="37.859000200" lon="-81.361494700">
  <name>Peak:Irish Lick Knob</name>
  <cmt>Peak:Irish Lick Knob</cmt>
  <desc>Peak:Irish Lick Knob</desc>
</wpt>
<wpt lat="36.764007500" lon="-81.360939200">
  <name>Peak:Little Mountain</name>
  <cmt>Peak:Little Mountain</cmt>
  <desc>Peak:Little Mountain</desc>
</wpt>
<wpt lat="37.241783100" lon="-81.360935600">
  <name>Peak:Scott Knob</name>
  <cmt>Peak:Scott Knob</cmt>
  <desc>Peak:Scott Knob</desc>
</wpt>
<wpt lat="36.841229200" lon="-81.359828000">
  <name>Peak:Glade Mountain</name>
  <cmt>Peak:Glade Mountain</cmt>
  <desc>Peak:Glade Mountain</desc>
</wpt>
<wpt lat="36.849840300" lon="-81.355383300">
  <name>Peak:Little Mountain</name>
  <cmt>Peak:Little Mountain</cmt>
  <desc>Peak:Little Mountain</desc>
</wpt>
<wpt lat="37.874833300" lon="-81.355106000">
  <name>Peak:Packs Knob</name>
  <cmt>Peak:Packs Knob</cmt>
  <desc>Peak:Packs Knob</desc>
</wpt>
<wpt lat="36.965672900" lon="-81.351771800">
  <name>Tower:Walker Mountain Lookout Tower</name>
  <cmt>Tower:Walker Mountain Lookout Tower</cmt>
  <desc>Tower:Walker Mountain Lookout Tower</desc>
</wpt>
<wpt lat="36.635122000" lon="-81.351213200">
  <name>Peak:Kindrick Mountain</name>
  <cmt>Peak:Kindrick Mountain</cmt>
  <desc>Peak:Kindrick Mountain</desc>
</wpt>
<wpt lat="37.356227000" lon="-81.342045900">
  <name>Peak:Coaldale Mountain</name>
  <cmt>Peak:Coaldale Mountain</cmt>
  <desc>Peak:Coaldale Mountain</desc>
</wpt>
<wpt lat="36.613178500" lon="-81.333433800">
  <name>Peak:Grassy Knob</name>
  <cmt>Peak:Grassy Knob</cmt>
  <desc>Peak:Grassy Knob</desc>
</wpt>
<wpt lat="36.829007400" lon="-81.332881900">
  <name>Peak:White Rock Mountain</name>
  <cmt>Peak:White Rock Mountain</cmt>
  <desc>Peak:White Rock Mountain</desc>
</wpt>
<wpt lat="36.545958000" lon="-81.332598600">
  <name>Peak:Rocky Knob</name>
  <cmt>Peak:Rocky Knob</cmt>
  <desc>Peak:Rocky Knob</desc>
</wpt>
<wpt lat="36.935673400" lon="-81.332326300">
  <name>Peak:Groundhog Hill</name>
  <cmt>Peak:Groundhog Hill</cmt>
  <desc>Peak:Groundhog Hill</desc>
</wpt>
<wpt lat="36.770119000" lon="-81.331493000">
  <name>Peak:Horne Knob</name>
  <cmt>Peak:Horne Knob</cmt>
  <desc>Peak:Horne Knob</desc>
</wpt>
<wpt lat="37.178450100" lon="-81.330102000">
  <name>Peak:Buckhorn Mountain</name>
  <cmt>Peak:Buckhorn Mountain</cmt>
  <desc>Peak:Buckhorn Mountain</desc>
</wpt>
<wpt lat="36.816229800" lon="-81.329826200">
  <name>Peak:Buchanan Mountain</name>
  <cmt>Peak:Buchanan Mountain</cmt>
  <desc>Peak:Buchanan Mountain</desc>
</wpt>
<wpt lat="37.960943100" lon="-81.328996300">
  <name>Peak:Hodge Knob</name>
  <cmt>Peak:Hodge Knob</cmt>
  <desc>Peak:Hodge Knob</desc>
</wpt>
<wpt lat="36.526792100" lon="-81.323153000">
  <name>Peak:Lilah Hill</name>
  <cmt>Peak:Lilah Hill</cmt>
  <desc>Peak:Lilah Hill</desc>
</wpt>
<wpt lat="37.951776700" lon="-81.321496000">
  <name>Peak:Paint Mountain</name>
  <cmt>Peak:Paint Mountain</cmt>
  <desc>Peak:Paint Mountain</desc>
</wpt>
<wpt lat="36.765674800" lon="-81.320103300">
  <name>Peak:Snake Den Mountain</name>
  <cmt>Peak:Snake Den Mountain</cmt>
  <desc>Peak:Snake Den Mountain</desc>
</wpt>
<wpt lat="37.272061000" lon="-81.317878700">
  <name>Tower:WBDY-AM (Bluefield)</name>
  <cmt>Tower:WBDY-AM (Bluefield)</cmt>
  <desc>Tower:WBDY-AM (Bluefield)</desc>
</wpt>
<wpt lat="36.487348700" lon="-81.314540600">
  <name>Peak:Franks Knob</name>
  <cmt>Peak:Franks Knob</cmt>
  <desc>Peak:Franks Knob</desc>
</wpt>
<wpt lat="37.812057000" lon="-81.313437300">
  <name>Peak:Chestnut Flat Mountain</name>
  <cmt>Peak:Chestnut Flat Mountain</cmt>
  <desc>Peak:Chestnut Flat Mountain</desc>
</wpt>
<wpt lat="37.135394900" lon="-81.311490600">
  <name>Peak:Gose Knob</name>
  <cmt>Peak:Gose Knob</cmt>
  <desc>Peak:Gose Knob</desc>
</wpt>
<wpt lat="37.947610200" lon="-81.308717800">
  <name>Tower:WCIR-FM (Beckley)</name>
  <cmt>Tower:WCIR-FM (Beckley)</cmt>
  <desc>Tower:WCIR-FM (Beckley)</desc>
</wpt>
<wpt lat="37.947610200" lon="-81.308440000">
  <name>Peak:Lick Knob</name>
  <cmt>Peak:Lick Knob</cmt>
  <desc>Peak:Lick Knob</desc>
</wpt>
<wpt lat="36.777063700" lon="-81.307602600">
  <name>Peak:Little Mountain</name>
  <cmt>Peak:Little Mountain</cmt>
  <desc>Peak:Little Mountain</desc>
</wpt>
<wpt lat="36.590124000" lon="-81.305931500">
  <name>Peak:Fox Knob</name>
  <cmt>Peak:Fox Knob</cmt>
  <desc>Peak:Fox Knob</desc>
</wpt>
<wpt lat="36.662622000" lon="-81.304822300">
  <name>Peak:Russell Knob</name>
  <cmt>Peak:Russell Knob</cmt>
  <desc>Peak:Russell Knob</desc>
</wpt>
<wpt lat="37.921777500" lon="-81.299550400">
  <name>Peak:High Knob</name>
  <cmt>Peak:High Knob</cmt>
  <desc>Peak:High Knob</desc>
</wpt>
<wpt lat="36.957618000" lon="-81.298435500">
  <name>Peak:Little Turkey Knob</name>
  <cmt>Peak:Little Turkey Knob</cmt>
  <desc>Peak:Little Turkey Knob</desc>
</wpt>
<wpt lat="36.716231700" lon="-81.295934200">
  <name>Peak:Bald Rock</name>
  <cmt>Peak:Bald Rock</cmt>
  <desc>Peak:Bald Rock</desc>
</wpt>
<wpt lat="37.941777200" lon="-81.295384200">
  <name>Peak:Town Creek Knob</name>
  <cmt>Peak:Town Creek Knob</cmt>
  <desc>Peak:Town Creek Knob</desc>
</wpt>
<wpt lat="37.855389800" lon="-81.293993500">
  <name>Peak:Spruce Mountain</name>
  <cmt>Peak:Spruce Mountain</cmt>
  <desc>Peak:Spruce Mountain</desc>
</wpt>
<wpt lat="36.963729100" lon="-81.293990800">
  <name>Peak:Big Turkey Knob</name>
  <cmt>Peak:Big Turkey Knob</cmt>
  <desc>Peak:Big Turkey Knob</desc>
</wpt>
<wpt lat="36.734564600" lon="-81.289545400">
  <name>Peak:High Knob</name>
  <cmt>Peak:High Knob</cmt>
  <desc>Peak:High Knob</desc>
</wpt>
<wpt lat="36.677899600" lon="-81.289266100">
  <name>Peak:Buck Mountain</name>
  <cmt>Peak:Buck Mountain</cmt>
  <desc>Peak:Buck Mountain</desc>
</wpt>
<wpt lat="37.325116500" lon="-81.285655600">
  <name>Peak:Pinnacle</name>
  <cmt>Peak:Pinnacle</cmt>
  <desc>Peak:Pinnacle</desc>
</wpt>
<wpt lat="37.470671200" lon="-81.281767200">
  <name>Tower:Pilot Knob Lookout Tower</name>
  <cmt>Tower:Pilot Knob Lookout Tower</cmt>
  <desc>Tower:Pilot Knob Lookout Tower</desc>
</wpt>
<wpt lat="36.744009000" lon="-81.280100700">
  <name>Peak:Lina Rocks</name>
  <cmt>Peak:Lina Rocks</cmt>
  <desc>Peak:Lina Rocks</desc>
</wpt>
<wpt lat="38.005109500" lon="-81.278718500">
  <name>Peak:Kingston Mountain</name>
  <cmt>Peak:Kingston Mountain</cmt>
  <desc>Peak:Kingston Mountain</desc>
</wpt>
<wpt lat="37.778724700" lon="-81.275658200">
  <name>Peak:Lilly Mountain</name>
  <cmt>Peak:Lilly Mountain</cmt>
  <desc>Peak:Lilly Mountain</desc>
</wpt>
<wpt lat="37.484560000" lon="-81.271767100">
  <name>Peak:Pilot Knob</name>
  <cmt>Peak:Pilot Knob</cmt>
  <desc>Peak:Pilot Knob</desc>
</wpt>
<wpt lat="36.669011200" lon="-81.270653600">
  <name>Peak:Fries Knob</name>
  <cmt>Peak:Fries Knob</cmt>
  <desc>Peak:Fries Knob</desc>
</wpt>
<wpt lat="36.724287500" lon="-81.267599400">
  <name>Peak:Roaring Hill</name>
  <cmt>Peak:Roaring Hill</cmt>
  <desc>Peak:Roaring Hill</desc>
</wpt>
<wpt lat="36.780397700" lon="-81.264822100">
  <name>Peak:Huckleberry Knob</name>
  <cmt>Peak:Huckleberry Knob</cmt>
  <desc>Peak:Huckleberry Knob</desc>
</wpt>
<wpt lat="36.785675500" lon="-81.263433100">
  <name>Peak:Little Huckleberry Knob</name>
  <cmt>Peak:Little Huckleberry Knob</cmt>
  <desc>Peak:Little Huckleberry Knob</desc>
</wpt>
<wpt lat="36.763175700" lon="-81.261766300">
  <name>Peak:Buzzard Rock</name>
  <cmt>Peak:Buzzard Rock</cmt>
  <desc>Peak:Buzzard Rock</desc>
</wpt>
<wpt lat="36.774842200" lon="-81.260377400">
  <name>Peak:Harvey Knob</name>
  <cmt>Peak:Harvey Knob</cmt>
  <desc>Peak:Harvey Knob</desc>
</wpt>
<wpt lat="36.771231200" lon="-81.258432800">
  <name>Peak:Panther Knob</name>
  <cmt>Peak:Panther Knob</cmt>
  <desc>Peak:Panther Knob</desc>
</wpt>
<wpt lat="37.275950300" lon="-81.251487900">
  <name>Tower:WHIS-AM (Bluefield)</name>
  <cmt>Tower:WHIS-AM (Bluefield)</cmt>
  <desc>Tower:WHIS-AM (Bluefield)</desc>
</wpt>
<wpt lat="36.663733900" lon="-81.250930100">
  <name>Peak:High Rock</name>
  <cmt>Peak:High Rock</cmt>
  <desc>Peak:High Rock</desc>
</wpt>
<wpt lat="36.663733900" lon="-81.250652300">
  <name>Peak:Buck Mountain</name>
  <cmt>Peak:Buck Mountain</cmt>
  <desc>Peak:Buck Mountain</desc>
</wpt>
<wpt lat="37.365116500" lon="-81.248432700">
  <name>Peak:Browning Lambert Mountain</name>
  <cmt>Peak:Browning Lambert Mountain</cmt>
  <desc>Peak:Browning Lambert Mountain</desc>
</wpt>
<wpt lat="36.555125900" lon="-81.246482700">
  <name>Peak:Turkey Knob</name>
  <cmt>Peak:Turkey Knob</cmt>
  <desc>Peak:Turkey Knob</desc>
</wpt>
<wpt lat="36.993729400" lon="-81.245099200">
  <name>Peak:Browns Peak</name>
  <cmt>Peak:Browns Peak</cmt>
  <desc>Peak:Browns Peak</desc>
</wpt>
<wpt lat="36.557348100" lon="-81.243982600">
  <name>Peak:Turkey Knob</name>
  <cmt>Peak:Turkey Knob</cmt>
  <desc>Peak:Turkey Knob</desc>
</wpt>
<wpt lat="36.921507900" lon="-81.242598800">
  <name>Tower:WCRR-AM (Rural Retreat)</name>
  <cmt>Tower:WCRR-AM (Rural Retreat)</cmt>
  <desc>Tower:WCRR-AM (Rural Retreat)</desc>
</wpt>
<wpt lat="37.788447100" lon="-81.238157600">
  <name>Tower:WWNR-AM (Beckley)</name>
  <cmt>Tower:WWNR-AM (Beckley)</cmt>
  <desc>Tower:WWNR-AM (Beckley)</desc>
</wpt>
<wpt lat="37.755114400" lon="-81.236490300">
  <name>Tower:WIWS-AM (Beckley)</name>
  <cmt>Tower:WIWS-AM (Beckley)</cmt>
  <desc>Tower:WIWS-AM (Beckley)</desc>
</wpt>
<wpt lat="36.764287300" lon="-81.228153000">
  <name>Peak:Comers Rock</name>
  <cmt>Peak:Comers Rock</cmt>
  <desc>Peak:Comers Rock</desc>
</wpt>
<wpt lat="37.977055000" lon="-81.227327700">
  <name>Peak:Flag Knob</name>
  <cmt>Peak:Flag Knob</cmt>
  <desc>Peak:Flag Knob</desc>
</wpt>
<wpt lat="36.593180800" lon="-81.223704500">
  <name>Peak:Privett Knob</name>
  <cmt>Peak:Privett Knob</cmt>
  <desc>Peak:Privett Knob</desc>
</wpt>
<wpt lat="36.465961600" lon="-81.221201800">
  <name>Peak:Peach Bottom Mountain</name>
  <cmt>Peak:Peach Bottom Mountain</cmt>
  <desc>Peak:Peach Bottom Mountain</desc>
</wpt>
<wpt lat="36.812898100" lon="-81.215930200">
  <name>Peak:Bowling Green Mountain</name>
  <cmt>Peak:Bowling Green Mountain</cmt>
  <desc>Peak:Bowling Green Mountain</desc>
</wpt>
<wpt lat="37.001229400" lon="-81.215375100">
  <name>Peak:Griffith Knob</name>
  <cmt>Peak:Griffith Knob</cmt>
  <desc>Peak:Griffith Knob</desc>
</wpt>
<wpt lat="36.597903000" lon="-81.214815200">
  <name>Peak:Buzzard Hill</name>
  <cmt>Peak:Buzzard Hill</cmt>
  <desc>Peak:Buzzard Hill</desc>
</wpt>
<wpt lat="36.465961800" lon="-81.213423600">
  <name>Peak:Catherine Knob</name>
  <cmt>Peak:Catherine Knob</cmt>
  <desc>Peak:Catherine Knob</desc>
</wpt>
<wpt lat="37.955666800" lon="-81.207604300">
  <name>Peak:Haystack Mountain</name>
  <cmt>Peak:Haystack Mountain</cmt>
  <desc>Peak:Haystack Mountain</desc>
</wpt>
<wpt lat="37.511505200" lon="-81.206764900">
  <name>Peak:Bluff Mountain</name>
  <cmt>Peak:Bluff Mountain</cmt>
  <desc>Peak:Bluff Mountain</desc>
</wpt>
<wpt lat="36.595125500" lon="-81.202870000">
  <name>Peak:Shoal Hill</name>
  <cmt>Peak:Shoal Hill</cmt>
  <desc>Peak:Shoal Hill</desc>
</wpt>
<wpt lat="36.473461900" lon="-81.198978500">
  <name>Peak:Cheek Mountain</name>
  <cmt>Peak:Cheek Mountain</cmt>
  <desc>Peak:Cheek Mountain</desc>
</wpt>
<wpt lat="37.568171600" lon="-81.198431800">
  <name>Peak:Rich Knob</name>
  <cmt>Peak:Rich Knob</cmt>
  <desc>Peak:Rich Knob</desc>
</wpt>
<wpt lat="36.574848300" lon="-81.198424800">
  <name>Peak:Penitentiary Hill</name>
  <cmt>Peak:Penitentiary Hill</cmt>
  <desc>Peak:Penitentiary Hill</desc>
</wpt>
<wpt lat="37.905390000" lon="-81.197880800">
  <name>Peak:Packs Mountain</name>
  <cmt>Peak:Packs Mountain</cmt>
  <desc>Peak:Packs Mountain</desc>
</wpt>
<wpt lat="36.795676300" lon="-81.197317800">
  <name>Peak:Sindion Point</name>
  <cmt>Peak:Sindion Point</cmt>
  <desc>Peak:Sindion Point</desc>
</wpt>
<wpt lat="37.784003300" lon="-81.197045000">
  <name>Museum:Youth Museum of Southwestern West Virginia</name>
  <cmt>Museum:Youth Museum of Southwestern West Virginia</cmt>
  <desc>Museum:Youth Museum of Southwestern West Virginia</desc>
</wpt>
<wpt lat="38.054553900" lon="-81.195661200">
  <name>Peak:Ford Knob</name>
  <cmt>Peak:Ford Knob</cmt>
  <desc>Peak:Ford Knob</desc>
</wpt>
<wpt lat="37.886779300" lon="-81.194269100">
  <name>Tower:WTNJ-FM (Mount Hope)</name>
  <cmt>Tower:WTNJ-FM (Mount Hope)</cmt>
  <desc>Tower:WTNJ-FM (Mount Hope)</desc>
</wpt>
<wpt lat="37.154840100" lon="-81.194262300">
  <name>Peak:Round Mountain</name>
  <cmt>Peak:Round Mountain</cmt>
  <desc>Peak:Round Mountain</desc>
</wpt>
<wpt lat="37.266784300" lon="-81.189262100">
  <name>Tower:WKOY Radio Tower (Sturgeon Bay)</name>
  <cmt>Tower:WKOY Radio Tower (Sturgeon Bay)</cmt>
  <desc>Tower:WKOY Radio Tower (Sturgeon Bay)</desc>
</wpt>
<wpt lat="37.265950900" lon="-81.188706500">
  <name>Tower:WKOY-AM (Bluefield)</name>
  <cmt>Tower:WKOY-AM (Bluefield)</cmt>
  <desc>Tower:WKOY-AM (Bluefield)</desc>
</wpt>
<wpt lat="36.747343700" lon="-81.187872600">
  <name>Peak:Round Mountain</name>
  <cmt>Peak:Round Mountain</cmt>
  <desc>Peak:Round Mountain</desc>
</wpt>
<wpt lat="37.255673300" lon="-81.182039400">
  <name>Tower:WHIS Radio Tower (Sturgeon Bay)</name>
  <cmt>Tower:WHIS Radio Tower (Sturgeon Bay)</cmt>
  <desc>Tower:WHIS Radio Tower (Sturgeon Bay)</desc>
</wpt>
<wpt lat="37.255673300" lon="-81.182039400">
  <name>Tower:WHIS Radio Tower (Tazewell)</name>
  <cmt>Tower:WHIS Radio Tower (Tazewell)</cmt>
  <desc>Tower:WHIS Radio Tower (Tazewell)</desc>
</wpt>
<wpt lat="37.255951000" lon="-81.181761500">
  <name>Tower:WHAJ-FM (Bluefield)</name>
  <cmt>Tower:WHAJ-FM (Bluefield)</cmt>
  <desc>Tower:WHAJ-FM (Bluefield)</desc>
</wpt>
<wpt lat="37.255951000" lon="-81.181761500">
  <name>Tower:WVVA-TV (Bluefield)</name>
  <cmt>Tower:WVVA-TV (Bluefield)</cmt>
  <desc>Tower:WVVA-TV (Bluefield)</desc>
</wpt>
<wpt lat="37.364284000" lon="-81.181762500">
  <name>Peak:Black Oak Mountain</name>
  <cmt>Peak:Black Oak Mountain</cmt>
  <desc>Peak:Black Oak Mountain</desc>
</wpt>
<wpt lat="36.810954100" lon="-81.181205700">
  <name>Peak:Cave Hill</name>
  <cmt>Peak:Cave Hill</cmt>
  <desc>Peak:Cave Hill</desc>
</wpt>
<wpt lat="36.904286300" lon="-81.180650300">
  <name>Tower:WCRR-FM (Rural Retreat)</name>
  <cmt>Tower:WCRR-FM (Rural Retreat)</cmt>
  <desc>Tower:WCRR-FM (Rural Retreat)</desc>
</wpt>
<wpt lat="37.257340000" lon="-81.178428100">
  <name>Tower:WPIR-FM (Bluefield)</name>
  <cmt>Tower:WPIR-FM (Bluefield)</cmt>
  <desc>Tower:WPIR-FM (Bluefield)</desc>
</wpt>
<wpt lat="37.258451100" lon="-81.176483600">
  <name>Tower:WBDY-FM (Bluefield)</name>
  <cmt>Tower:WBDY-FM (Bluefield)</cmt>
  <desc>Tower:WBDY-FM (Bluefield)</desc>
</wpt>
<wpt lat="36.779287900" lon="-81.176483100">
  <name>Peak:Porter Mountain</name>
  <cmt>Peak:Porter Mountain</cmt>
  <desc>Peak:Porter Mountain</desc>
</wpt>
<wpt lat="36.490128700" lon="-81.176199600">
  <name>Peak:Fender Mountain</name>
  <cmt>Peak:Fender Mountain</cmt>
  <desc>Peak:Fender Mountain</desc>
</wpt>
<wpt lat="36.667901800" lon="-81.167313900">
  <name>Peak:The Pinnacle</name>
  <cmt>Peak:The Pinnacle</cmt>
  <desc>Peak:The Pinnacle</desc>
</wpt>
<wpt lat="36.667901800" lon="-81.167036100">
  <name>Peak:Point Lookout Mountain</name>
  <cmt>Peak:Point Lookout Mountain</cmt>
  <desc>Peak:Point Lookout Mountain</desc>
</wpt>
<wpt lat="37.647616000" lon="-81.164820000">
  <name>Peak:Pond Knob</name>
  <cmt>Peak:Pond Knob</cmt>
  <desc>Peak:Pond Knob</desc>
</wpt>
<wpt lat="36.611514600" lon="-81.163701400">
  <name>Peak:Bald Hill</name>
  <cmt>Peak:Bald Hill</cmt>
  <desc>Peak:Bald Hill</desc>
</wpt>
<wpt lat="37.000951700" lon="-81.161760500">
  <name>Peak:Little Walker Mountain</name>
  <cmt>Peak:Little Walker Mountain</cmt>
  <desc>Peak:Little Walker Mountain</desc>
</wpt>
<wpt lat="37.777892800" lon="-81.160932500">
  <name>Tower:WJLS-AM (Beckley)</name>
  <cmt>Tower:WJLS-AM (Beckley)</cmt>
  <desc>Tower:WJLS-AM (Beckley)</desc>
</wpt>
<wpt lat="37.362895300" lon="-81.159539100">
  <name>Peak:Turkey Knob</name>
  <cmt>Peak:Turkey Knob</cmt>
  <desc>Peak:Turkey Knob</desc>
</wpt>
<wpt lat="36.651235700" lon="-81.159257400">
  <name>Peak:Striped Rock</name>
  <cmt>Peak:Striped Rock</cmt>
  <desc>Peak:Striped Rock</desc>
</wpt>
<wpt lat="37.592616500" lon="-81.155374700">
  <name>Peak:Indian Grave Mountain</name>
  <cmt>Peak:Indian Grave Mountain</cmt>
  <desc>Peak:Indian Grave Mountain</desc>
</wpt>
<wpt lat="37.958445200" lon="-81.150657800">
  <name>Tower:WAXS-FM (Oak Hill)</name>
  <cmt>Tower:WAXS-FM (Oak Hill)</cmt>
  <desc>Tower:WAXS-FM (Oak Hill)</desc>
</wpt>
<wpt lat="37.958445200" lon="-81.150657800">
  <name>Tower:WOAY-AM (Oak Hill)</name>
  <cmt>Tower:WOAY-AM (Oak Hill)</cmt>
  <desc>Tower:WOAY-AM (Oak Hill)</desc>
</wpt>
<wpt lat="37.958445200" lon="-81.150657800">
  <name>Tower:WOAY-TV (Oak Hill)</name>
  <cmt>Tower:WOAY-TV (Oak Hill)</cmt>
  <desc>Tower:WOAY-TV (Oak Hill)</desc>
</wpt>
<wpt lat="37.838725100" lon="-81.150100000">
  <name>Peak:Batoff Mountain</name>
  <cmt>Peak:Batoff Mountain</cmt>
  <desc>Peak:Batoff Mountain</desc>
</wpt>
<wpt lat="36.756788600" lon="-81.149814600">
  <name>Peak:High Knob</name>
  <cmt>Peak:High Knob</cmt>
  <desc>Peak:High Knob</desc>
</wpt>
<wpt lat="36.716511900" lon="-81.146758000">
  <name>Peak:Tims Knob</name>
  <cmt>Peak:Tims Knob</cmt>
  <desc>Peak:Tims Knob</desc>
</wpt>
<wpt lat="36.784288300" lon="-81.143703100">
  <name>Peak:Horse Heaven</name>
  <cmt>Peak:Horse Heaven</cmt>
  <desc>Peak:Horse Heaven</desc>
</wpt>
<wpt lat="36.616792600" lon="-81.143144600">
  <name>Peak:Wolf Hill</name>
  <cmt>Peak:Wolf Hill</cmt>
  <desc>Peak:Wolf Hill</desc>
</wpt>
<wpt lat="37.710671600" lon="-81.142319800">
  <name>Peak:Hecks Knob</name>
  <cmt>Peak:Hecks Knob</cmt>
  <desc>Peak:Hecks Knob</desc>
</wpt>
<wpt lat="36.873731400" lon="-81.141481100">
  <name>Peak:Sand Mountain</name>
  <cmt>Peak:Sand Mountain</cmt>
  <desc>Peak:Sand Mountain</desc>
</wpt>
<wpt lat="36.700401500" lon="-81.135923700">
  <name>Peak:Poor Knob</name>
  <cmt>Peak:Poor Knob</cmt>
  <desc>Peak:Poor Knob</desc>
</wpt>
<wpt lat="37.597894600" lon="-81.135373900">
  <name>Peak:Bald Knob</name>
  <cmt>Peak:Bald Knob</cmt>
  <desc>Peak:Bald Knob</desc>
</wpt>
<wpt lat="36.759566600" lon="-81.133702400">
  <name>Peak:Perkins Knob</name>
  <cmt>Peak:Perkins Knob</cmt>
  <desc>Peak:Perkins Knob</desc>
</wpt>
<wpt lat="37.305673700" lon="-81.124814500">
  <name>Tower:WAMN-AM (Green Valley)</name>
  <cmt>Tower:WAMN-AM (Green Valley)</cmt>
  <desc>Tower:WAMN-AM (Green Valley)</desc>
</wpt>
<wpt lat="37.305673700" lon="-81.124814500">
  <name>Tower:WKMY-FM (Princeton)</name>
  <cmt>Tower:WKMY-FM (Princeton)</cmt>
  <desc>Tower:WKMY-FM (Princeton)</desc>
</wpt>
<wpt lat="36.610404100" lon="-81.123421100">
  <name>Peak:McKenney Hill</name>
  <cmt>Peak:McKenney Hill</cmt>
  <desc>Peak:McKenney Hill</desc>
</wpt>
<wpt lat="37.717894000" lon="-81.119819100">
  <name>Peak:Shady Spring Mountain</name>
  <cmt>Peak:Shady Spring Mountain</cmt>
  <desc>Peak:Shady Spring Mountain</desc>
</wpt>
<wpt lat="36.540406100" lon="-81.119530600">
  <name>Peak:Doughton Mountain</name>
  <cmt>Peak:Doughton Mountain</cmt>
  <desc>Peak:Doughton Mountain</desc>
</wpt>
<wpt lat="37.590672700" lon="-81.114817400">
  <name>Peak:Flat Top Mountain</name>
  <cmt>Peak:Flat Top Mountain</cmt>
  <desc>Peak:Flat Top Mountain</desc>
</wpt>
<wpt lat="36.796510800" lon="-81.114812400">
  <name>Peak:Little Horse Heaven</name>
  <cmt>Peak:Little Horse Heaven</cmt>
  <desc>Peak:Little Horse Heaven</desc>
</wpt>
<wpt lat="37.589561500" lon="-81.114539600">
  <name>Peak:Huff Knob</name>
  <cmt>Peak:Huff Knob</cmt>
  <desc>Peak:Huff Knob</desc>
</wpt>
<wpt lat="37.589839300" lon="-81.113984000">
  <name>Tower:WJLS-FM (Beckley)</name>
  <cmt>Tower:WJLS-FM (Beckley)</cmt>
  <desc>Tower:WJLS-FM (Beckley)</desc>
</wpt>
<wpt lat="36.888176000" lon="-81.109812400">
  <name>Peak:Stuart Mountain</name>
  <cmt>Peak:Stuart Mountain</cmt>
  <desc>Peak:Stuart Mountain</desc>
</wpt>
<wpt lat="36.728734400" lon="-81.107033500">
  <name>Peak:Brierpatch Mountain</name>
  <cmt>Peak:Brierpatch Mountain</cmt>
  <desc>Peak:Brierpatch Mountain</desc>
</wpt>
<wpt lat="36.864287500" lon="-81.106756500">
  <name>Peak:Henley Mountain</name>
  <cmt>Peak:Henley Mountain</cmt>
  <desc>Peak:Henley Mountain</desc>
</wpt>
<wpt lat="36.801788600" lon="-81.103700600">
  <name>Peak:Hussy Mountain</name>
  <cmt>Peak:Hussy Mountain</cmt>
  <desc>Peak:Hussy Mountain</desc>
</wpt>
<wpt lat="36.478185500" lon="-81.102584300">
  <name>Tower:WCOK-AM (Sparta)</name>
  <cmt>Tower:WCOK-AM (Sparta)</cmt>
  <desc>Tower:WCOK-AM (Sparta)</desc>
</wpt>
<wpt lat="37.389840400" lon="-81.099258600">
  <name>Tower:WAEY-AM (Princeton)</name>
  <cmt>Tower:WAEY-AM (Princeton)</cmt>
  <desc>Tower:WAEY-AM (Princeton)</desc>
</wpt>
<wpt lat="37.389840400" lon="-81.099258600">
  <name>Tower:WAEY-FM (Princeton)</name>
  <cmt>Tower:WAEY-FM (Princeton)</cmt>
  <desc>Tower:WAEY-FM (Princeton)</desc>
</wpt>
<wpt lat="36.550684000" lon="-81.096474000">
  <name>Peak:Bald Knob</name>
  <cmt>Peak:Bald Knob</cmt>
  <desc>Peak:Bald Knob</desc>
</wpt>
<wpt lat="36.990396500" lon="-81.093422800">
  <name>Peak:Queens Knob</name>
  <cmt>Peak:Queens Knob</cmt>
  <desc>Peak:Queens Knob</desc>
</wpt>
<wpt lat="36.806233100" lon="-81.092033100">
  <name>Peak:Fry Hill</name>
  <cmt>Peak:Fry Hill</cmt>
  <desc>Peak:Fry Hill</desc>
</wpt>
<wpt lat="38.109831800" lon="-81.091769300">
  <name>Peak:Harvey Knob</name>
  <cmt>Peak:Harvey Knob</cmt>
  <desc>Peak:Harvey Knob</desc>
</wpt>
<wpt lat="37.505951300" lon="-81.087037300">
  <name>Peak:Panther Knob</name>
  <cmt>Peak:Panther Knob</cmt>
  <desc>Peak:Panther Knob</desc>
</wpt>
<wpt lat="37.855670100" lon="-81.085098000">
  <name>Peak:Stretcher Neck</name>
  <cmt>Peak:Stretcher Neck</cmt>
  <desc>Peak:Stretcher Neck</desc>
</wpt>
<wpt lat="36.732623600" lon="-81.083976600">
  <name>Peak:The Pilot</name>
  <cmt>Peak:The Pilot</cmt>
  <desc>Peak:The Pilot</desc>
</wpt>
<wpt lat="37.898169400" lon="-81.083709900">
  <name>Peak:Garden Ground Mountain</name>
  <cmt>Peak:Garden Ground Mountain</cmt>
  <desc>Peak:Garden Ground Mountain</desc>
</wpt>
<wpt lat="36.965952500" lon="-81.081199700">
  <name>Tower:WYVE Radio Tower (Galax)</name>
  <cmt>Tower:WYVE Radio Tower (Galax)</cmt>
  <desc>Tower:WYVE Radio Tower (Galax)</desc>
</wpt>
<wpt lat="36.965119200" lon="-81.080366400">
  <name>Tower:WYVE-AM (Wytheville)</name>
  <cmt>Tower:WYVE-AM (Wytheville)</cmt>
  <desc>Tower:WYVE-AM (Wytheville)</desc>
</wpt>
<wpt lat="38.059727200" lon="-81.077416700">
  <name>View point:Long Point</name>
  <cmt>View point:Long Point</cmt>
  <desc>View point:Long Point</desc>
</wpt>
<wpt lat="37.940668800" lon="-81.073154600">
  <name>Peak:Swell Knob</name>
  <cmt>Peak:Swell Knob</cmt>
  <desc>Peak:Swell Knob</desc>
</wpt>
<wpt lat="36.765956300" lon="-81.072587300">
  <name>Peak:Jones Knob</name>
  <cmt>Peak:Jones Knob</cmt>
  <desc>Peak:Jones Knob</desc>
</wpt>
<wpt lat="36.791511500" lon="-81.071476200">
  <name>Peak:Devils Den</name>
  <cmt>Peak:Devils Den</cmt>
  <desc>Peak:Devils Den</desc>
</wpt>
<wpt lat="36.907620400" lon="-81.068420900">
  <name>Peak:Sand Mountain</name>
  <cmt>Peak:Sand Mountain</cmt>
  <desc>Peak:Sand Mountain</desc>
</wpt>
<wpt lat="38.044640900" lon="-81.068409900">
  <name>Camp site</name>
  <cmt>Camp site</cmt>
  <desc>Camp site</desc>
</wpt>
<wpt lat="36.841232800" lon="-81.067031600">
  <name>Peak:Gleaves Knob</name>
  <cmt>Peak:Gleaves Knob</cmt>
  <desc>Peak:Gleaves Knob</desc>
</wpt>
<wpt lat="37.757338800" lon="-81.065651100">
  <name>Peak:Round Knob</name>
  <cmt>Peak:Round Knob</cmt>
  <desc>Peak:Round Knob</desc>
</wpt>
<wpt lat="36.688458400" lon="-81.065085700">
  <name>Peak:Lundy Knob</name>
  <cmt>Peak:Lundy Knob</cmt>
  <desc>Peak:Lundy Knob</desc>
</wpt>
<wpt lat="36.890120800" lon="-81.062865000">
  <name>Peak:Lick Mountain</name>
  <cmt>Peak:Lick Mountain</cmt>
  <desc>Peak:Lick Mountain</desc>
</wpt>
<wpt lat="36.907672500" lon="-81.061573600">
  <name>Peak:High Rocks</name>
  <cmt>Peak:High Rocks</cmt>
  <desc>Peak:High Rocks</desc>
</wpt>
<wpt lat="36.915667500" lon="-81.061410500">
  <name>Peak:Chimney Rocks</name>
  <cmt>Peak:Chimney Rocks</cmt>
  <desc>Peak:Chimney Rocks</desc>
</wpt>
<wpt lat="37.848448300" lon="-81.061208200">
  <name>Peak:Turkey Spur Rock</name>
  <cmt>Peak:Turkey Spur Rock</cmt>
  <desc>Peak:Turkey Spur Rock</desc>
</wpt>
<wpt lat="36.875676700" lon="-81.056197800">
  <name>Peak:Swecker Mountain</name>
  <cmt>Peak:Swecker Mountain</cmt>
  <desc>Peak:Swecker Mountain</desc>
</wpt>
<wpt lat="37.039285400" lon="-81.055642700">
  <name>Peak:Little Walker Mountain</name>
  <cmt>Peak:Little Walker Mountain</cmt>
  <desc>Peak:Little Walker Mountain</desc>
</wpt>
<wpt lat="36.799567100" lon="-81.052308300">
  <name>Peak:Ewing Mountain</name>
  <cmt>Peak:Ewing Mountain</cmt>
  <desc>Peak:Ewing Mountain</desc>
</wpt>
<wpt lat="37.464285400" lon="-81.050646100">
  <name>Peak:Hector Knob</name>
  <cmt>Peak:Hector Knob</cmt>
  <desc>Peak:Hector Knob</desc>
</wpt>
<wpt lat="36.573184200" lon="-81.043137900">
  <name>Peak:Willie Knob</name>
  <cmt>Peak:Willie Knob</cmt>
  <desc>Peak:Willie Knob</desc>
</wpt>
<wpt lat="36.697625400" lon="-81.034528300">
  <name>Peak:Turkey Knob</name>
  <cmt>Peak:Turkey Knob</cmt>
  <desc>Peak:Turkey Knob</desc>
</wpt>
<wpt lat="36.736513300" lon="-81.028973100">
  <name>Peak:Stevens Knob</name>
  <cmt>Peak:Stevens Knob</cmt>
  <desc>Peak:Stevens Knob</desc>
</wpt>
<wpt lat="37.611784900" lon="-81.024258400">
  <name>Peak:Panther Knob</name>
  <cmt>Peak:Panther Knob</cmt>
  <desc>Peak:Panther Knob</desc>
</wpt>
<wpt lat="37.928725100" lon="-81.022597100">
  <name>Peak:Beury Mountain</name>
  <cmt>Peak:Beury Mountain</cmt>
  <desc>Peak:Beury Mountain</desc>
</wpt>
<wpt lat="37.493174700" lon="-81.020089600">
  <name>Peak:Christian Knob</name>
  <cmt>Peak:Christian Knob</cmt>
  <desc>Peak:Christian Knob</desc>
</wpt>
<wpt lat="36.809011800" lon="-81.018972900">
  <name>Peak:Chestnut Knob</name>
  <cmt>Peak:Chestnut Knob</cmt>
  <desc>Peak:Chestnut Knob</desc>
</wpt>
<wpt lat="37.312897000" lon="-81.015086500">
  <name>Peak:Tater Knob</name>
  <cmt>Peak:Tater Knob</cmt>
  <desc>Peak:Tater Knob</desc>
</wpt>
<wpt lat="37.691506900" lon="-80.997036500">
  <name>Peak:White Oak Mountain</name>
  <cmt>Peak:White Oak Mountain</cmt>
  <desc>Peak:White Oak Mountain</desc>
</wpt>
<wpt lat="37.880948500" lon="-80.994261900">
  <name>Peak:Highland Mountain</name>
  <cmt>Peak:Highland Mountain</cmt>
  <desc>Peak:Highland Mountain</desc>
</wpt>
<wpt lat="37.896226100" lon="-80.988984300">
  <name>Tower:WSWP-TV (Grandview)</name>
  <cmt>Tower:WSWP-TV (Grandview)</cmt>
  <desc>Tower:WSWP-TV (Grandview)</desc>
</wpt>
<wpt lat="37.896226100" lon="-80.988984300">
  <name>Tower:WVPB-FM (Beckley)</name>
  <cmt>Tower:WVPB-FM (Beckley)</cmt>
  <desc>Tower:WVPB-FM (Beckley)</desc>
</wpt>
<wpt lat="36.613183900" lon="-80.985635400">
  <name>Peak:Hampton Knob</name>
  <cmt>Peak:Hampton Knob</cmt>
  <desc>Peak:Hampton Knob</desc>
</wpt>
<wpt lat="37.772061700" lon="-80.984815300">
  <name>Peak:Plumley Mountain</name>
  <cmt>Peak:Plumley Mountain</cmt>
  <desc>Peak:Plumley Mountain</desc>
</wpt>
<wpt lat="37.889559600" lon="-80.983984000">
  <name>Peak:Greenwood Mountain</name>
  <cmt>Peak:Greenwood Mountain</cmt>
  <desc>Peak:Greenwood Mountain</desc>
</wpt>
<wpt lat="37.292619600" lon="-80.982306500">
  <name>Peak:Buckhorn Knob</name>
  <cmt>Peak:Buckhorn Knob</cmt>
  <desc>Peak:Buckhorn Knob</desc>
</wpt>
<wpt lat="37.301786300" lon="-80.982306700">
  <name>Peak:Jesses Knob</name>
  <cmt>Peak:Jesses Knob</cmt>
  <desc>Peak:Jesses Knob</desc>
</wpt>