<?xml version="1.0" encoding="UTF-8"?>
<kml xmlns="http://www.opengis.net/kml/2.2">
<Document>
<Placemark><name>Sports Center:Riverview Recreation Center</name><description>
Sports Center:Riverview Recreation Center</description><Point><coordinates>-82.55321,36.53705</coordinates></Point></Placemark>
<Placemark><name>Sports Center:Smith - Canter Gymnasium</name><description>
Sports Center:Smith - Canter Gymnasium</description><Point><coordinates>-82.17583,36.60528</coordinates></Point></Placemark>
<Placemark><name>Sports Center:King Health and Physical Education Center</name><description>
Sports Center:King Health and Physical Education Center</description><Point><coordinates>-81.82722,36.77417</coordinates></Point></Placemark>
<Placemark><name>Baseball:Shelor Sports Complex</name><description>
Baseball:Shelor Sports Complex</description><Point><coordinates>-80.51538,37.10232</coordinates></Point></Placemark>
<Placemark><name>Sports Center:Shelor Sports Complex</name><description>
Sports Center:Shelor Sports Complex</description><Point><coordinates>-80.51538,37.10232</coordinates></Point></Placemark>
<Placemark><name>Soccer</name><description>
Soccer</description><Point><coordinates>-80.41269,37.24227</coordinates></Point></Placemark>
<Placemark><name>Baseball</name><description>
Baseball</description><Point><coordinates>-80.41221,37.24192</coordinates></Point></Placemark>
<Placemark><name>Baseball</name><description>
Baseball</description><Point><coordinates>-80.41137,37.24222</coordinates></Point></Placemark>
<Placemark><name>Skateboard</name><description>
Skateboard</description><Point><coordinates>-80.41102,37.24225</coordinates></Point></Placemark>
<Placemark><name>Skateboard</name><description>
Skateboard</description><Point><coordinates>-80.41049,37.24200</coordinates></Point></Placemark>
<Placemark><name>Hockey</name><description>
Hockey</description><Point><coordinates>-80.41041,37.24165</coordinates></Point></Placemark>
<Placemark><name>Baseball</name><description>
Baseball</description><Point><coordinates>-80.11472,37.27270</coordinates></Point></Placemark>
<Placemark><name>Pitch</name><description>
Pitch</description><Point><coordinates>-80.11472,37.27270</coordinates></Point></Placemark>
<Placemark><name>Baseball</name><description>
Baseball</description><Point><coordinates>-80.11389,37.27360</coordinates></Point></Placemark>
<Placemark><name>Pitch</name><description>
Pitch</description><Point><coordinates>-80.11389,37.27360</coordinates></Point></Placemark>
<Placemark><name>Baseball</name><description>
Baseball</description><Point><coordinates>-80.11381,37.27280</coordinates></Point></Placemark>
<Placemark><name>Pitch</name><description>
Pitch</description><Point><coordinates>-80.11381,37.27280</coordinates></Point></Placemark>
<Placemark><name>Baseball</name><description>
Baseball</description><Point><coordinates>-80.11295,37.27369</coordinates></Point></Placemark>
<Placemark><name>Pitch</name><description>
Pitch</description><Point><coordinates>-80.11295,37.27369</coordinates></Point></Placemark>
<Placemark><name>Baseball</name><description>
Baseball</description><Point><coordinates>-80.11158,37.27410</coordinates></Point></Placemark>
<Placemark><name>Pitch</name><description>
Pitch</description><Point><coordinates>-80.11158,37.27410</coordinates></Point></Placemark>
<Placemark><name>Sports Center:Belk Fitness Center</name><description>
Sports Center:Belk Fitness Center</description><Point><coordinates>-80.05694,37.29639</coordinates></Point></Placemark>
<Placemark><name>Sports Center:Alumni Gym</name><description>
Sports Center:Alumni Gym</description><Point><coordinates>-80.05639,37.29611</coordinates></Point></Placemark>
<Placemark><name>Sports Center:Central YMCA</name><description>
Sports Center:Central YMCA</description><Point><coordinates>-79.94893,37.27041</coordinates></Point></Placemark>
<Placemark><name>Tennis:Duchossois Tennis Center</name><description>
Tennis:Duchossois Tennis Center</description><Point><coordinates>-79.44861,37.79500</coordinates></Point></Placemark>
<Placemark><name>Sports Center:Doremus Gymnasium</name><description>
Sports Center:Doremus Gymnasium</description><Point><coordinates>-79.44532,37.78791</coordinates></Point></Placemark>
<Placemark><name>Stadium:Knight Sports Arena</name><description>
Stadium:Knight Sports Arena</description><Point><coordinates>-79.35056,37.74139</coordinates></Point></Placemark>
<Placemark><name>Sports Center:Turner Gymnasium</name><description>
Sports Center:Turner Gymnasium</description><Point><coordinates>-79.18444,37.39750</coordinates></Point></Placemark>
<Placemark><name>Sports Center:Memorial Gymnasium</name><description>
Sports Center:Memorial Gymnasium</description><Point><coordinates>-79.18197,37.39903</coordinates></Point></Placemark>
<Placemark><name>Skateboard:Riverfront Skatepark</name><description>
Skateboard:Riverfront Skatepark</description><Point><coordinates>-79.14090,37.41712</coordinates></Point></Placemark>
<Placemark><name>Sports Center:Prothro Natatorium</name><description>
Sports Center:Prothro Natatorium</description><Point><coordinates>-79.08389,37.55528</coordinates></Point></Placemark>
<Placemark><name>Sports Center:Williams Gymnasium</name><description>
Sports Center:Williams Gymnasium</description><Point><coordinates>-79.08389,37.55528</coordinates></Point></Placemark>
<Placemark><name>Sports Center:Old Gymnasium</name><description>
Sports Center:Old Gymnasium</description><Point><coordinates>-78.97250,38.37861</coordinates></Point></Placemark>
<Placemark><name>Baseball:Memorial Stadium</name><description>
Baseball:Memorial Stadium</description><Point><coordinates>-78.87743,38.44688</coordinates></Point></Placemark>
<Placemark><name>Sports Center:Memorial Stadium</name><description>
Sports Center:Memorial Stadium</description><Point><coordinates>-78.87743,38.44688</coordinates></Point></Placemark>
<Placemark><name>Athletics:University Park - James Madison University</name><description>
Athletics:University Park - James Madison University</description><Point><coordinates>-78.86808,38.42110</coordinates></Point></Placemark>
<Placemark><name>Sports Center:University Park - James Madison University</name><description>
Sports Center:University Park - James Madison University</description><Point><coordinates>-78.86808,38.42110</coordinates></Point></Placemark>
<Placemark><name>Sports Center:Unversity Recreation Center</name><description>
Sports Center:Unversity Recreation Center</description><Point><coordinates>-78.86750,38.43361</coordinates></Point></Placemark>
<Placemark><name>Sports Center:Simms Recreation Center</name><description>
Sports Center:Simms Recreation Center</description><Point><coordinates>-78.85864,38.45568</coordinates></Point></Placemark>
<Placemark><name>Sports Center:James C Slaughter Recreation Center</name><description>
Sports Center:James C Slaughter Recreation Center</description><Point><coordinates>-78.51778,38.03472</coordinates></Point></Placemark>
<Placemark><name>Baseball</name><description>
Baseball</description><Point><coordinates>-78.51417,38.04575</coordinates></Point></Placemark>
<Placemark><name>Swimming:Aquatic and Fitiness Center</name><description>
Swimming:Aquatic and Fitiness Center</description><Point><coordinates>-78.51361,38.03278</coordinates></Point></Placemark>
<Placemark><name>Sports Center:North Grounds Recreation Center</name><description>
Sports Center:North Grounds Recreation Center</description><Point><coordinates>-78.51333,38.05083</coordinates></Point></Placemark>
<Placemark><name>Sports Center:Memorial Gymnasium</name><description>
Sports Center:Memorial Gymnasium</description><Point><coordinates>-78.50723,38.03764</coordinates></Point></Placemark>
<Placemark><name>Sports Center:Outdoor Recreation Center</name><description>
Sports Center:Outdoor Recreation Center</description><Point><coordinates>-78.50663,38.04086</coordinates></Point></Placemark>
<Placemark><name>Sports Center:Gammon Gymnasium</name><description>
Sports Center:Gammon Gymnasium</description><Point><coordinates>-78.45888,37.24432</coordinates></Point></Placemark>
<Placemark><name>Tennis:Varsity Tennis Courts</name><description>
Tennis:Varsity Tennis Courts</description><Point><coordinates>-78.39611,37.29806</coordinates></Point></Placemark>
<Placemark><name>Sports Center:Melton Memorial Gymnasium</name><description>
Sports Center:Melton Memorial Gymnasium</description><Point><coordinates>-78.19889,38.92206</coordinates></Point></Placemark>
<Placemark><name>Golf course</name><description>
Golf course</description><Point><coordinates>-78.18610,38.95823</coordinates></Point></Placemark>
<Placemark><name>Golf course</name><description>
Golf course</description><Point><coordinates>-78.18603,38.98892</coordinates></Point></Placemark>
<Placemark><name>Sports Center:Aikens Athletic Center</name><description>
Sports Center:Aikens Athletic Center</description><Point><coordinates>-78.15667,39.16778</coordinates></Point></Placemark>
<Placemark><name>Sports Center:Crusader Memorial Gymnasium</name><description>
Sports Center:Crusader Memorial Gymnasium</description><Point><coordinates>-78.14917,38.94944</coordinates></Point></Placemark>
<Placemark><name>Golf course</name><description>
Golf course</description><Point><coordinates>-78.12424,38.99073</coordinates></Point></Placemark>
<Placemark><name>Golf course</name><description>
Golf course</description><Point><coordinates>-78.12042,38.98660</coordinates></Point></Placemark>
<Placemark><name>Sports Center:Warrenton Aquatic Recreation Facility</name><description>
Sports Center:Warrenton Aquatic Recreation Facility</description><Point><coordinates>-77.81877,38.71725</coordinates></Point></Placemark>
<Placemark><name>Swimming:Warrenton Aquatic Recreation Facility</name><description>
Swimming:Warrenton Aquatic Recreation Facility</description><Point><coordinates>-77.81877,38.71725</coordinates></Point></Placemark>
<Placemark><name>Pitch:Parade Field</name><description>
Pitch:Parade Field</description><Point><coordinates>-77.66620,38.82821</coordinates></Point></Placemark>
<Placemark><name>Pitch:Field Games</name><description>
Pitch:Field Games</description><Point><coordinates>-77.66601,38.82956</coordinates></Point></Placemark>
<Placemark><name>Sports Center:Davis Recreation Center</name><description>
Sports Center:Davis Recreation Center</description><Point><coordinates>-77.64748,36.46154</coordinates></Point></Placemark>
<Placemark><name>Shooting:Hogback Mountain Paintball</name><description>
Shooting:Hogback Mountain Paintball</description><Point><coordinates>-77.64461,39.05658</coordinates></Point></Placemark>
<Placemark><name>Golf course</name><description>
Golf course</description><Point><coordinates>-77.62125,38.78377</coordinates></Point></Placemark>
<Placemark><name>Sports Center:Millhiser Gymnasium</name><description>
Sports Center:Millhiser Gymnasium</description><Point><coordinates>-77.53861,37.58028</coordinates></Point></Placemark>
<Placemark><name>Golf course:Goose Creek Golf Club</name><description>
Golf course:Goose Creek Golf Club</description><Point><coordinates>-77.51319,39.08270</coordinates></Point></Placemark>
<Placemark><name>10-pin Bowling:Splitsville</name><description>10- 
10-pin Bowling:Splitsville</description><Point><coordinates>-77.50943,38.28900</coordinates></Point></Placemark>
<Placemark><name>Pitch</name><description>
Pitch</description><Point><coordinates>-77.50403,39.05357</coordinates></Point></Placemark>
<Placemark><name>Sports Center:War Memorial Gymnasium</name><description>
Sports Center:War Memorial Gymnasium</description><Point><coordinates>-77.48776,37.75625</coordinates></Point></Placemark>
<Placemark><name>Tennis:Bowen Tennis Courts</name><description>
Tennis:Bowen Tennis Courts</description><Point><coordinates>-77.48056,37.76417</coordinates></Point></Placemark>
<Placemark><name>Sports Center:Crenshaw and Alumni Gymnasiums</name><description>
Sports Center:Crenshaw and Alumni Gymnasiums</description><Point><coordinates>-77.47889,37.76278</coordinates></Point></Placemark>
<Placemark><name>Sports Center:Stonewall Recreation Center</name><description>
Sports Center:Stonewall Recreation Center</description><Point><coordinates>-77.46888,38.76095</coordinates></Point></Placemark>
<Placemark><name>Sports Center:Costello Park</name><description>
Sports Center:Costello Park</description><Point><coordinates>-77.46227,38.78461</coordinates></Point></Placemark>
<Placemark><name>Climbing:Belle Isle Rock Climbing</name><description>
Climbing:Belle Isle Rock Climbing</description><Point><coordinates>-77.45596,37.52797</coordinates></Point></Placemark>
<Placemark><name>Sports Center:Franklin Street Gymnasium</name><description>
Sports Center:Franklin Street Gymnasium</description><Point><coordinates>-77.45165,37.54848</coordinates></Point></Placemark>
<Placemark><name>Sports Center:Barco - Stevens Gymnasium</name><description>
Sports Center:Barco - Stevens Gymnasium</description><Point><coordinates>-77.44944,37.56278</coordinates></Point></Placemark>
<Placemark><name>Sports Center:Daniel Gymnasium</name><description>
Sports Center:Daniel Gymnasium</description><Point><coordinates>-77.42139,37.23861</coordinates></Point></Placemark>
<Placemark><name>Sports Center:Claude Moore Recreation Center</name><description>
Sports Center:Claude Moore Recreation Center</description><Point><coordinates>-77.40417,39.01306</coordinates></Point></Placemark>
<Placemark><name>Athletics:Sport &amp; Health Club</name><description>
Athletics:Sport &amp; Health Club</description><Point><coordinates>-77.40183,38.95731</coordinates></Point></Placemark>
<Placemark><name>Sports Center:rifle range</name><description>
Sports Center:rifle range</description><Point><coordinates>-77.39825,37.95576</coordinates></Point></Placemark>
<Placemark><name>Sports Center:Sellman Recreation Center</name><description>
Sports Center:Sellman Recreation Center</description><Point><coordinates>-77.39526,39.20010</coordinates></Point></Placemark>
<Placemark><name>Canoe:Calleva.org</name><description>
Canoe:Calleva.org</description><Point><coordinates>-77.34084,39.06961</coordinates></Point></Placemark>
<Placemark><name>Sports Center:Calleva.org</name><description>
Sports Center:Calleva.org</description><Point><coordinates>-77.34084,39.06961</coordinates></Point></Placemark>
<Placemark><name>Pitch</name><description>
Pitch</description><Point><coordinates>-77.34058,38.93397</coordinates></Point></Placemark>
<Placemark><name>Tennis</name><description>
Tennis</description><Point><coordinates>-77.34058,38.93397</coordinates></Point></Placemark>
<Placemark><name>Golf course</name><description>
Golf course</description><Point><coordinates>-77.33876,39.06934</coordinates></Point></Placemark>
<Placemark><name>Soccer</name><description>
Soccer</description><Point><coordinates>-77.31894,38.83356</coordinates></Point></Placemark>
<Placemark><name>Soccer</name><description>
Soccer</description><Point><coordinates>-77.31861,38.95861</coordinates></Point></Placemark>
<Placemark><name>Baseball:Spuhler Field</name><description>
Baseball:Spuhler Field</description><Point><coordinates>-77.31808,38.83474</coordinates></Point></Placemark>
<Placemark><name>Soccer</name><description>
Soccer</description><Point><coordinates>-77.31794,38.83348</coordinates></Point></Placemark>
<Placemark><name>Athletics:George Mason Stadium</name><description>
Athletics:George Mason Stadium</description><Point><coordinates>-77.31660,38.83380</coordinates></Point></Placemark>
<Placemark><name>Stadium:George Mason Stadium</name><description>
Stadium:George Mason Stadium</description><Point><coordinates>-77.31660,38.83380</coordinates></Point></Placemark>
<Placemark><name>Sports Center:Physical Education Building</name><description>
Sports Center:Physical Education Building</description><Point><coordinates>-77.31278,38.83083</coordinates></Point></Placemark>
<Placemark><name>Sports Center:Aquatic and Fitness Center</name><description>
Sports Center:Aquatic and Fitness Center</description><Point><coordinates>-77.30444,38.82611</coordinates></Point></Placemark>
<Placemark><name>Sports Center:David Pinn Recreation Center</name><description>
Sports Center:David Pinn Recreation Center</description><Point><coordinates>-77.29887,38.80678</coordinates></Point></Placemark>
<Placemark><name>Sports Center:Fairfax Swimming Pool</name><description>
Sports Center:Fairfax Swimming Pool</description><Point><coordinates>-77.29776,38.83711</coordinates></Point></Placemark>
<Placemark><name>Swimming:Fairfax Swimming Pool</name><description>
Swimming:Fairfax Swimming Pool</description><Point><coordinates>-77.29776,38.83711</coordinates></Point></Placemark>
<Placemark><name>Sports Center:Somerset –Olde Creek Recreation Club</name><description>
Sports Center:Somerset –Olde Creek Recreation Club</description><Point><coordinates>-77.27998,38.83442</coordinates></Point></Placemark>
<Placemark><name>Baseball</name><description>
Baseball</description><Point><coordinates>-77.27764,38.83614</coordinates></Point></Placemark>
<Placemark><name>Pitch</name><description>
Pitch</description><Point><coordinates>-77.27764,38.83614</coordinates></Point></Placemark>
<Placemark><name>Football</name><description>
Football</description><Point><coordinates>-77.27621,38.83692</coordinates></Point></Placemark>
<Placemark><name>Pitch</name><description>
Pitch</description><Point><coordinates>-77.27621,38.83692</coordinates></Point></Placemark>
<Placemark><name>Baseball</name><description>
Baseball</description><Point><coordinates>-77.27491,38.83859</coordinates></Point></Placemark>
<Placemark><name>Pitch</name><description>
Pitch</description><Point><coordinates>-77.27491,38.83859</coordinates></Point></Placemark>
<Placemark><name>Stadium:Fairfax Ice Arena</name><description>
Stadium:Fairfax Ice Arena</description><Point><coordinates>-77.27248,38.84872</coordinates></Point></Placemark>
<Placemark><name>Sports Center:Rutherford Area Swim Club</name><description>
Sports Center:Rutherford Area Swim Club</description><Point><coordinates>-77.26370,38.82338</coordinates></Point></Placemark>
<Placemark><name>Swimming:Rutherford Area Swim Club</name><description>
Swimming:Rutherford Area Swim Club</description><Point><coordinates>-77.26370,38.82338</coordinates></Point></Placemark>
<Placemark><name>Sports Center:Canterbury Woods Swim &amp; Tennis Club</name><description>
Sports Center:Canterbury Woods Swim &amp; Tennis Club</description><Point><coordinates>-77.24266,38.81376</coordinates></Point></Placemark>
<Placemark><name>Golf course</name><description>
Golf course</description><Point><coordinates>-77.24126,38.71521</coordinates></Point></Placemark>
<Placemark><name>Sports Center:Providence Recreation Center</name><description>
Sports Center:Providence Recreation Center</description><Point><coordinates>-77.21193,38.86122</coordinates></Point></Placemark>
<Placemark><name>Sports Center:Barcroft Recreation Center</name><description>
Sports Center:Barcroft Recreation Center</description><Point><coordinates>-77.16470,38.84178</coordinates></Point></Placemark>
<Placemark><name>Swimming</name><description>
Swimming</description><Point><coordinates>-77.16468,39.03403</coordinates></Point></Placemark>
<Placemark><name>Tennis:Dunaway Racquet Club</name><description>
Tennis:Dunaway Racquet Club</description><Point><coordinates>-77.15382,38.94434</coordinates></Point></Placemark>
<Placemark><name>Basketball</name><description>
Basketball</description><Point><coordinates>-77.15031,38.88221</coordinates></Point></Placemark>
<Placemark><name>Pitch</name><description>
Pitch</description><Point><coordinates>-77.15031,38.88221</coordinates></Point></Placemark>
<Placemark><name>Baseball</name><description>
Baseball</description><Point><coordinates>-77.14998,38.88263</coordinates></Point></Placemark>
<Placemark><name>Baseball:Batting Cages</name><description>
Baseball:Batting Cages</description><Point><coordinates>-77.14377,38.87165</coordinates></Point></Placemark>
<Placemark><name>Sports Center:Batting Cages</name><description>
Sports Center:Batting Cages</description><Point><coordinates>-77.14377,38.87165</coordinates></Point></Placemark>
<Placemark><name>Sports Center:EarthTreks Rockville</name><description>
Sports Center:EarthTreks Rockville</description><Point><coordinates>-77.14338,39.07858</coordinates></Point></Placemark>
<Placemark><name>Sports Center:Robert E Lee Recreation Center</name><description>
Sports Center:Robert E Lee Recreation Center</description><Point><coordinates>-77.14331,38.89428</coordinates></Point></Placemark>
<Placemark><name>Boules:Bocce Ball &amp; Shuffleboard</name><description>
Boules:Bocce Ball &amp; Shuffleboard</description><Point><coordinates>-77.14318,38.87275</coordinates></Point></Placemark>
<Placemark><name>Sports Center:Bocce Ball &amp; Shuffleboard</name><description>
Sports Center:Bocce Ball &amp; Shuffleboard</description><Point><coordinates>-77.14318,38.87275</coordinates></Point></Placemark>
<Placemark><name>Sports Center:Stevenson Square Recreation Center</name><description>
Sports Center:Stevenson Square Recreation Center</description><Point><coordinates>-77.14220,38.81095</coordinates></Point></Placemark>
<Placemark><name>Basketball</name><description>
Basketball</description><Point><coordinates>-77.14118,38.88757</coordinates></Point></Placemark>
<Placemark><name>Pitch</name><description>
Pitch</description><Point><coordinates>-77.14118,38.88757</coordinates></Point></Placemark>
<Placemark><name>Basketball</name><description>
Basketball</description><Point><coordinates>-77.14105,38.88728</coordinates></Point></Placemark>
<Placemark><name>Pitch</name><description>
Pitch</description><Point><coordinates>-77.14105,38.88728</coordinates></Point></Placemark>
<Placemark><name>Golf course</name><description>
Golf course</description><Point><coordinates>-77.14062,39.11547</coordinates></Point></Placemark>
<Placemark><name>Baseball</name><description>
Baseball</description><Point><coordinates>-77.14040,38.88729</coordinates></Point></Placemark>
<Placemark><name>Pitch</name><description>
Pitch</description><Point><coordinates>-77.14040,38.88729</coordinates></Point></Placemark>
<Placemark><name>Football</name><description>
Football</description><Point><coordinates>-77.13933,38.88213</coordinates></Point></Placemark>
<Placemark><name>Pitch</name><description>
Pitch</description><Point><coordinates>-77.13933,38.88213</coordinates></Point></Placemark>
<Placemark><name>Pitch</name><description>
Pitch</description><Point><coordinates>-77.13931,38.88198</coordinates></Point></Placemark>
<Placemark><name>Tennis</name><description>
Tennis</description><Point><coordinates>-77.13931,38.88198</coordinates></Point></Placemark>
<Placemark><name>Sports Center:Fitness First</name><description>
Sports Center:Fitness First</description><Point><coordinates>-77.13856,39.07468</coordinates></Point></Placemark>
<Placemark><name>Football</name><description>
Football</description><Point><coordinates>-77.13614,38.87975</coordinates></Point></Placemark>
<Placemark><name>Baseball</name><description>
Baseball</description><Point><coordinates>-77.13559,38.88048</coordinates></Point></Placemark>
<Placemark><name>Baseball</name><description>
Baseball</description><Point><coordinates>-77.13392,38.87226</coordinates></Point></Placemark>
<Placemark><name>Pitch:Bluemont Tennis Courts</name><description>
Pitch:Bluemont Tennis Courts</description><Point><coordinates>-77.13321,38.87527</coordinates></Point></Placemark>
<Placemark><name>Tennis:Bluemont Tennis Courts</name><description>
Tennis:Bluemont Tennis Courts</description><Point><coordinates>-77.13321,38.87527</coordinates></Point></Placemark>
<Placemark><name>Baseball</name><description>
Baseball</description><Point><coordinates>-77.13269,38.87187</coordinates></Point></Placemark>
<Placemark><name>Sports Center:Lubber Run Recreation Center</name><description>
Sports Center:Lubber Run Recreation Center</description><Point><coordinates>-77.11442,38.87345</coordinates></Point></Placemark>
<Placemark><name>Basketball</name><description>
Basketball</description><Point><coordinates>-77.10594,38.88459</coordinates></Point></Placemark>
<Placemark><name>Pitch</name><description>
Pitch</description><Point><coordinates>-77.10594,38.88459</coordinates></Point></Placemark>
<Placemark><name>Sports Center:YMCA</name><description>
Sports Center:YMCA</description><Point><coordinates>-77.10220,38.88733</coordinates></Point></Placemark>
<Placemark><name>Baseball</name><description>
Baseball</description><Point><coordinates>-77.10076,38.82006</coordinates></Point></Placemark>
<Placemark><name>Swimming</name><description>
Swimming</description><Point><coordinates>-77.10035,38.97373</coordinates></Point></Placemark>
<Placemark><name>Baseball</name><description>
Baseball</description><Point><coordinates>-77.09968,38.81826</coordinates></Point></Placemark>
<Placemark><name>Sports Center:Equinox</name><description>
Sports Center:Equinox</description><Point><coordinates>-77.09644,38.98227</coordinates></Point></Placemark>
<Placemark><name>Sports Center:Lloyd Gymnasium</name><description>
Sports Center:Lloyd Gymnasium</description><Point><coordinates>-77.09028,38.91667</coordinates></Point></Placemark>
<Placemark><name>Basketball</name><description>
Basketball</description><Point><coordinates>-77.08795,38.88751</coordinates></Point></Placemark>
<Placemark><name>Sports Center:Millennium Medi Spa</name><description>
Sports Center:Millennium Medi Spa</description><Point><coordinates>-77.08688,38.96191</coordinates></Point></Placemark>
<Placemark><name>Sports Center:Washington Sports Club</name><description>
Sports Center:Washington Sports Club</description><Point><coordinates>-77.08509,38.96018</coordinates></Point></Placemark>
<Placemark><name>Sports Center:YMCA Veterans</name><description>
Sports Center:YMCA Veterans</description><Point><coordinates>-77.08359,38.84983</coordinates></Point></Placemark>
<Placemark><name>Sports Center:McDonough Gymnasium</name><description>
Sports Center:McDonough Gymnasium</description><Point><coordinates>-77.07778,38.90750</coordinates></Point></Placemark>
<Placemark><name>Sports Center:Down Dog Yoga</name><description>
Sports Center:Down Dog Yoga</description><Point><coordinates>-77.06544,38.90437</coordinates></Point></Placemark>
<Placemark><name>Sports Center:Mount Vernon Sports Complex</name><description>
Sports Center:Mount Vernon Sports Complex</description><Point><coordinates>-77.06303,38.77428</coordinates></Point></Placemark>
<Placemark><name>Sports Center:Fuel Pilates</name><description>
Sports Center:Fuel Pilates</description><Point><coordinates>-77.06263,38.90485</coordinates></Point></Placemark>
<Placemark><name>Swimming:Glenwood Recreation Club</name><description>
Swimming:Glenwood Recreation Club</description><Point><coordinates>-77.05233,39.01902</coordinates></Point></Placemark>
<Placemark><name>Basketball</name><description>
Basketball</description><Point><coordinates>-77.05217,38.80766</coordinates></Point></Placemark>
<Placemark><name>Sports Center:Woodley Park Yoga</name><description>
Sports Center:Woodley Park Yoga</description><Point><coordinates>-77.05153,38.92431</coordinates></Point></Placemark>
<Placemark><name>Sports Center:Sports Club/LA</name><description>
Sports Center:Sports Club/LA</description><Point><coordinates>-77.04922,38.90496</coordinates></Point></Placemark>
<Placemark><name>Sports Center:Washington Sports Club</name><description>
Sports Center:Washington Sports Club</description><Point><coordinates>-77.04464,38.90181</coordinates></Point></Placemark>
<Placemark><name>Sports Center:Fitness First</name><description>
Sports Center:Fitness First</description><Point><coordinates>-77.04316,38.90333</coordinates></Point></Placemark>
<Placemark><name>Sports Center:Bancroft Recreation Center</name><description>
Sports Center:Bancroft Recreation Center</description><Point><coordinates>-77.03998,38.93483</coordinates></Point></Placemark>
<Placemark><name>Sports Center:Anthony Bowen Branch YMCA</name><description>
Sports Center:Anthony Bowen Branch YMCA</description><Point><coordinates>-77.03970,38.91511</coordinates></Point></Placemark>
<Placemark><name>Sports Center:Brightwood Recreation Center</name><description>
Sports Center:Brightwood Recreation Center</description><Point><coordinates>-77.03803,38.95483</coordinates></Point></Placemark>
<Placemark><name>Sports Center</name><description>
Sports Center</description><Point><coordinates>-77.03543,38.92894</coordinates></Point></Placemark>
<Placemark><name>Sports Center</name><description>
Sports Center</description><Point><coordinates>-77.03505,38.92894</coordinates></Point></Placemark>
<Placemark><name>Basketball</name><description>
Basketball</description><Point><coordinates>-77.03301,39.00003</coordinates></Point></Placemark>
<Placemark><name>Pitch</name><description>
Pitch</description><Point><coordinates>-77.03301,39.00003</coordinates></Point></Placemark>
<Placemark><name>Tennis:Woodside Park</name><description>
Tennis:Woodside Park</description><Point><coordinates>-77.03276,38.99921</coordinates></Point></Placemark>
<Placemark><name>Sports Center:Dahn Yoga</name><description>
Sports Center:Dahn Yoga</description><Point><coordinates>-77.03222,38.89862</coordinates></Point></Placemark>
<Placemark><name>Swimming</name><description>
Swimming</description><Point><coordinates>-77.03131,38.90599</coordinates></Point></Placemark>
<Placemark><name>Sports Center:Washington Sports Club</name><description>
Sports Center:Washington Sports Club</description><Point><coordinates>-77.03128,38.89754</coordinates></Point></Placemark>
<Placemark><name>Sports Center:YMCA</name><description>
Sports Center:YMCA</description><Point><coordinates>-77.03101,38.91951</coordinates></Point></Placemark>
<Placemark><name>Sports Center:Hamilton Recreation Center</name><description>
Sports Center:Hamilton Recreation Center</description><Point><coordinates>-77.03081,38.95233</coordinates></Point></Placemark>
<Placemark><name>Swimming</name><description>
Swimming</description><Point><coordinates>-77.02997,39.03953</coordinates></Point></Placemark>
<Placemark><name>Pitch</name><description>
Pitch</description><Point><coordinates>-77.02984,39.01230</coordinates></Point></Placemark>
<Placemark><name>Soccer</name><description>
Soccer</description><Point><coordinates>-77.02984,39.01230</coordinates></Point></Placemark>
<Placemark><name>Sports Center:Fit Club</name><description>
Sports Center:Fit Club</description><Point><coordinates>-77.02788,38.89928</coordinates></Point></Placemark>
<Placemark><name>Sports Center:Phyllis Wheatley YMCA</name><description>
Sports Center:Phyllis Wheatley YMCA</description><Point><coordinates>-77.02414,38.91206</coordinates></Point></Placemark>
<Placemark><name>Sports Center:Petworth Recreation Center</name><description>
Sports Center:Petworth Recreation Center</description><Point><coordinates>-77.02359,38.94122</coordinates></Point></Placemark>
<Placemark><name>Sports Center:Vida Fitness</name><description>
Sports Center:Vida Fitness</description><Point><coordinates>-77.02330,38.90132</coordinates></Point></Placemark>
<Placemark><name>Sports Center:John Burr Gymnasium</name><description>
Sports Center:John Burr Gymnasium</description><Point><coordinates>-77.02250,38.92639</coordinates></Point></Placemark>
<Placemark><name>Sports Center:Washington Sports Club</name><description>
Sports Center:Washington Sports Club</description><Point><coordinates>-77.02171,38.89961</coordinates></Point></Placemark>
<Placemark><name>Sports Center:Washington Sports Club</name><description>
Sports Center:Washington Sports Club</description><Point><coordinates>-77.02158,38.89950</coordinates></Point></Placemark>
<Placemark><name>10-pin Bowling:Lucky Strike</name><description>10- 
10-pin Bowling:Lucky Strike</description><Point><coordinates>-77.02079,38.89919</coordinates></Point></Placemark>
<Placemark><name>Stadium:Washington Coliseum</name><description>
Stadium:Washington Coliseum</description><Point><coordinates>-77.00275,38.90483</coordinates></Point></Placemark>
<Placemark><name>Stadium:Uline Arena</name><description>
Stadium:Uline Arena</description><Point><coordinates>-77.00275,38.90511</coordinates></Point></Placemark>
<Placemark><name>Sports Center:Student Health &amp; Fitness Center</name><description>
Sports Center:Student Health &amp; Fitness Center</description><Point><coordinates>-76.99803,38.93789</coordinates></Point></Placemark>
<Placemark><name>Sports Center:Field House</name><description>
Sports Center:Field House</description><Point><coordinates>-76.99269,38.90571</coordinates></Point></Placemark>
<Placemark><name>Sports Center:Calomiris YMCA Program Center</name><description>
Sports Center:Calomiris YMCA Program Center</description><Point><coordinates>-76.97820,38.94540</coordinates></Point></Placemark>
<Placemark><name>Sports Center:Randle Highlands Recreation Center</name><description>
Sports Center:Randle Highlands Recreation Center</description><Point><coordinates>-76.96331,38.86983</coordinates></Point></Placemark>
<Placemark><name>Swimming:Outdoor Aquatic Center</name><description>
Swimming:Outdoor Aquatic Center</description><Point><coordinates>-76.94667,38.99333</coordinates></Point></Placemark>
<Placemark><name>Sports Center:Eppley Recreation Center</name><description>
Sports Center:Eppley Recreation Center</description><Point><coordinates>-76.94537,38.99366</coordinates></Point></Placemark>
<Placemark><name>Sports Center:Campus Recreation Center</name><description>
Sports Center:Campus Recreation Center</description><Point><coordinates>-76.94528,38.99361</coordinates></Point></Placemark>
<Placemark><name>Stadium:Ritchie Coliseum</name><description>
Stadium:Ritchie Coliseum</description><Point><coordinates>-76.93639,38.98500</coordinates></Point></Placemark>
<Placemark><name>10-pin Bowling</name><description>10- 
10-pin Bowling</description><Point><coordinates>-76.93049,39.00034</coordinates></Point></Placemark>
<Placemark><name>Sports Center:Franklin Gymnasium</name><description>
Sports Center:Franklin Gymnasium</description><Point><coordinates>-76.92774,36.67682</coordinates></Point></Placemark>
<Placemark><name>Golf course:South 1st</name><description>
Golf course:South 1st</description><Point><coordinates>-76.88226,38.78737</coordinates></Point></Placemark>
<Placemark><name>Sports Center:Prince George&amp;apos;s Sports &amp; Learning Complex</name><description>
Sports Center:Prince George&amp;apos;s Sports &amp; Learning Complex</description><Point><coordinates>-76.86752,38.91162</coordinates></Point></Placemark>
<Placemark><name>Baseball</name><description>
Baseball</description><Point><coordinates>-76.79141,38.99225</coordinates></Point></Placemark>
<Placemark><name>Golf course</name><description>
Golf course</description><Point><coordinates>-76.76111,38.82601</coordinates></Point></Placemark>
<Placemark><name>Stadium:Show Place Arena</name><description>
Stadium:Show Place Arena</description><Point><coordinates>-76.74937,38.81092</coordinates></Point></Placemark>
<Placemark><name>Sports Center:Prince George&amp;apos;s Equestrian Center</name><description>
Sports Center:Prince George&amp;apos;s Equestrian Center</description><Point><coordinates>-76.74661,38.81079</coordinates></Point></Placemark>
<Placemark><name>Sports Center</name><description>
Sports Center</description><Point><coordinates>-76.74400,38.81448</coordinates></Point></Placemark>
<Placemark><name>Sports Center:Blow Gymnasium</name><description>
Sports Center:Blow Gymnasium</description><Point><coordinates>-76.71135,37.27237</coordinates></Point></Placemark>
<Placemark><name>Tennis:McCormack-Nagelsen Tennis Center</name><description>- 
Tennis:McCormack-Nagelsen Tennis Center</description><Point><coordinates>-76.70500,37.26278</coordinates></Point></Placemark>
<Placemark><name>Sports Center</name><description>
Sports Center</description><Point><coordinates>-76.64148,38.31566</coordinates></Point></Placemark>
<Placemark><name>Tennis</name><description>
Tennis</description><Point><coordinates>-76.64148,38.31566</coordinates></Point></Placemark>
<Placemark><name>Sports Center:Somerset Gymnasium</name><description>
Sports Center:Somerset Gymnasium</description><Point><coordinates>-76.42583,38.18917</coordinates></Point></Placemark>
<Placemark><name>Stadium:Hampton Coliseum</name><description>
Stadium:Hampton Coliseum</description><Point><coordinates>-76.38139,37.03472</coordinates></Point></Placemark>
<Placemark><name>Sports Center:Health and Physical Education Building</name><description>
Sports Center:Health and Physical Education Building</description><Point><coordinates>-76.31083,36.88556</coordinates></Point></Placemark>
<Placemark><name>Stadium:Scope Arena</name><description>
Stadium:Scope Arena</description><Point><coordinates>-76.28694,36.85333</coordinates></Point></Placemark>
<Placemark><name>Sports Center:Brambleton Recreation Center</name><description>
Sports Center:Brambleton Recreation Center</description><Point><coordinates>-76.26667,36.85000</coordinates></Point></Placemark>
<Placemark><name>Sports Center:James D Gill Health &amp; Physical Education Building</name><description>
Sports Center:James D Gill Health &amp; Physical Education Building</description><Point><coordinates>-76.26167,36.84750</coordinates></Point></Placemark>
<Placemark><name>Sports Center:James D Gill Health And Physical Education Building</name><description>
Sports Center:James D Gill Health And Physical Education Building</description><Point><coordinates>-76.26167,36.84778</coordinates></Point></Placemark>
<Placemark><name>Sports Center:Cunningham Gymnasium</name><description>
Sports Center:Cunningham Gymnasium</description><Point><coordinates>-76.18639,36.86833</coordinates></Point></Placemark>
<Placemark><name>Tennis:Kings Grant Tennis Courts</name><description>
Tennis:Kings Grant Tennis Courts</description><Point><coordinates>-76.10434,36.86100</coordinates></Point></Placemark>
</Document>
</kml>
